Cod_Loc,IdProvincia,IdDepartamento,Observacion,Categoría,Subcategoria,Provincia,Departamento,Localidad,Nombre,Domicilio,Piso,CP,Cod_tel,Teléfono,Mail,Web,Información adicional,Latitud,Longitud,TipoLatitudLongitud,Fuente,Tipo_gestion,año_inicio,Año_actualizacion
70049060,70,70049,,Bibliotecas Populares,,San Juan,Iglesia,Rodeo,Biblioteca Popular Juan P. Garramuno,Santo Domingo,,5465,s/d,s/d,s/d,,,-30.2092500,-69.1301170,Localización precisa,CONABIP,Comunitaria,1930,2018
02000010,02,02000,,Bibliotecas Populares,,Ciudad Autónoma de Buenos Aires,Ciudad Autonoma de Buenos Aires,Ciudad de Buenos Aires,Biblioteca Popular Helena Larroque de Roffo,Simbrón 3058,,C1417EUD,11,45010078,asociacionroffo@yahoo.com.ar,,,-34.5984610,-58.4946900,Localización precisa,CONABIP,Comunitaria,1916,2018
02000010,02,02000,,Bibliotecas Populares,,Ciudad Autónoma de Buenos Aires,Ciudad Autonoma de Buenos Aires,Ciudad de Buenos Aires,Biblioteca Popular 12 de Octubre,Calle Arengreen 1187,,C1405CYM,11,49880766,popular12deoctubre@hotmail.com,,,-34.6132350,-58.4489970,Localización precisa,CONABIP,Comunitaria,1910,2018
02000010,02,02000,,Bibliotecas Populares,,Ciudad Autónoma de Buenos Aires,Ciudad Autonoma de Buenos Aires,Ciudad de Buenos Aires,Biblioteca Popular Villa Pueyrredón Norte,Cockrane 2334,,C1419FMD,11,45729107,bibliotecapueyrredon@hotmail.com,,,-34.5758900,-58.5015910,Localización precisa,CONABIP,Comunitaria,1916,2018
02000010,02,02000,,Bibliotecas Populares,,Ciudad Autónoma de Buenos Aires,Ciudad Autonoma de Buenos Aires,Ciudad de Buenos Aires,Biblioteca Popular Alberdi,Acevedo 666,,C1414DJN,11,47753325,bibliotecapopularalberdi@yahoo.com.ar,,,-34.5961570,-58.4376680,Localización precisa,CONABIP,Comunitaria,1910,2018
02000010,02,02000,,Bibliotecas Populares,,Ciudad Autónoma de Buenos Aires,Ciudad Autonoma de Buenos Aires,Ciudad de Buenos Aires,Biblioteca Popular Domingo Faustino Sarmiento,Bucarelli 2583,,1431,s/d,s/d,s/d,,,-34.5742260,-58.4899410,Localización precisa,CONABIP,Comunitaria,1930,2018
02000010,02,02000,,Bibliotecas Populares,,Ciudad Autónoma de Buenos Aires,Ciudad Autonoma de Buenos Aires,Ciudad de Buenos Aires,Biblioteca Popular Cornelio Saavedra,García del Río 2735/37,,C1429DED,11,47015180,bibliotecacsaavedra@yahoo.com,,,-34.5490380,-58.4725040,Localización precisa,CONABIP,Comunitaria,1918,2018
02000010,02,02000,,Bibliotecas Populares,,Ciudad Autónoma de Buenos Aires,Ciudad Autonoma de Buenos Aires,Ciudad de Buenos Aires,Biblioteca Popular José Enrique Rodo,Andalgalá 2051,,C1440ENO,11,46865631,bibliotecajerodo@yahoo.com.ar,,,-34.6600570,-58.5095140,Localización precisa,CONABIP,Comunitaria,1917,2018
06049020,06,06049,,Bibliotecas Populares,,Buenos Aires,Azul,Azul,Biblioteca Popular Bartolomé J. Ronco,Burgos 687,,B7300GEM,2281,424409,bibliotecaronco@ceal.com.ar,,,-36.7876500,-59.8746330,Localización precisa,CONABIP,Comunitaria,1892,2018
06462040,06,06462,,Bibliotecas Populares,,Buenos Aires,Leandro N. Alem,Juan Bautista Alberdi,Biblioteca Popular Domingo Faustino Sarmiento,Quintana,,6034,2354,480800,bibliotecapopular@live.com,,,-34.4408040,-61.8103220,Localización precisa,CONABIP,Comunitaria,1916,2018
06007010,06,06007,,Bibliotecas Populares,,Buenos Aires,Adolfo Alsina,Carhue,Biblioteca Popular Pública Adolfo Alsina,C.Pellegrini 916,,B6430CSL,2936,430724,bibliotecacarhue@yahoo.com.ar,,,-37.1809330,-62.7600500,Localización precisa,CONABIP,Comunitaria,1912,2018
06028010,06,06028,,Bibliotecas Populares,,Buenos Aires,Almirante Brown,Adrogué,Amigos de la Biblioteca Esteban Adrogué,La Rosa 974,,B1846CQN,11,42141245,biblioadrogue@yahoo.com.ar,,,-34.7972330,-58.3815500,Localización precisa,CONABIP,Comunitaria,1918,2018
06105060,06,06105,,Bibliotecas Populares,,Buenos Aires,Bolivar,Bolívar,Biblioteca Popular Bernardino Rivadavia,Las Heras 80,,B6550BGB,2314,420626,bib_rivadavia@yahoo.com.ar,,,-36.2320830,-61.1135330,Localización precisa,CONABIP,Comunitaria,1911,2018
06658010,06,06658,,Bibliotecas Populares,,Buenos Aires,Quilmes,Bernal,Biblioteca Popular José Manuel Estrada,Espora 105 bis,,B1876AWA,11,42516302,s/d,,,-34.7065670,-58.2800000,Localización precisa,CONABIP,Comunitaria,1930,2018
06056010,06,06056,,Bibliotecas Populares,,Buenos Aires,Bahia Blanca,Bahía Blanca,Biblioteca Popular Bernardino Rivadavia,Av. Colón 31,,B8000FTA,291,4554055,s/d,,,-38.7188500,-62.2670830,Localización precisa,CONABIP,Comunitaria,1882,2018
06203020,06,06203,,Bibliotecas Populares,,Buenos Aires,Coronel Suarez,Coronel Suarez,Biblioteca Popular Domingo Faustino Sarmiento,Sarmiento 349,,B7540DZG,2926,423287,bibliotecasarmiento_2000@yahoo.com.ar,,,-37.4565830,-61.9340330,Localización precisa,CONABIP,Comunitaria,1915,2018
06224010,06,06224,,Bibliotecas Populares,,Buenos Aires,Chivilcoy,Chivilcoy,Biblioteca Popular Dr. Antonio Novaro,Moreno 30,,B6620KFB,2346,422078,novaro1@hotmail.com,,,-34.8965330,-60.0176830,Localización precisa,CONABIP,Comunitaria,1895,2018
06049030,06,06049,,Bibliotecas Populares,,Buenos Aires,Azul,Cachari,Biblioteca Popular Almafuerte,25 de Mayo 1664,,B7214ABH,2281,481217,ndominguezcachari@hotmail.com,,,-36.3800170,-59.4998000,Localización precisa,CONABIP,Comunitaria,1918,2018
06217010,06,06217,,Bibliotecas Populares,,Buenos Aires,Chascomus,Chascomús,Biblioteca Popular Domingo Faustino Sarmiento,Alvear 9,,B7130AFA,2241,423403,bpsarmiento113@yahoo.com.ar,,,-35.5773670,-58.0124500,Localización precisa,CONABIP,Comunitaria,1872,2018
06840010,06,06840,,Bibliotecas Populares,,Buenos Aires,Tres de Febrero,Caseros,Biblioteca Popular Juan Bautista Alberdi,Sarmiento 2706,,B1678HBF,11,47597610,bpalberdi@yahoo.com.ar,,,-34.6078670,-58.5657330,Localización precisa,CONABIP,Comunitaria,1914,2018
06238010,06,06238,,Bibliotecas Populares,,Buenos Aires,Dolores,Dolores,Biblioteca Popular General San Martín,Bartolomé Mitre 60,,B7100BNB,2245,446253,bibsocial@speedy.com.ar,,,-36.3110330,-57.6785670,Localización precisa,CONABIP,Comunitaria,1945,2018
06483040,06,06483,,Bibliotecas Populares,,Buenos Aires,Lobos,Empalme Lobos,Biblioteca Popular Rivadavia,Rivadavia 50,,B7249AGB,2227,424614,clubrivadavia@hotmail.com,,,-35.1853500,-59.0962170,Localización precisa,CONABIP,Comunitaria,1920,2018
06274010,06,06274,,Bibliotecas Populares,,Buenos Aires,Florencio Varela,Florencio Varela,Biblioteca Popular Del Centro Cultural Sarmiento,Boccuzzi 97,,1888,11,42556621,s/d,,,-34.8100170,-58.2761830,Localización precisa,CONABIP,Comunitaria,1920,2018
06760010,06,06760,,Bibliotecas Populares,,Buenos Aires,San Miguel,San Miguel,Biblioteca Popular Municipal Domingo Faustino Sarmiento,Sarmiento 1503,,B1663HAL,11,46641840,bibliotecadfs@hotmail.com,,,-34.5436670,-58.7119830,Localización precisa,CONABIP,Comunitaria,1913,2018
06351020,06,06351,,Bibliotecas Populares,,Buenos Aires,General Pinto,General Pinto,Biblioteca Popular Domingo Faustino Sarmiento,San Martín y R. Gowland,,6050,2356,421129,biblioteca@germania.com.ar,,,-34.7655170,-61.8924500,Localización precisa,CONABIP,Comunitaria,1913,2018
06287010,06,06287,,Bibliotecas Populares,,Buenos Aires,General Alvear,General Alvear,Biblioteca Popular Florencio Balcarce,San Martín 341,,7236,2344,481246,bibliofbalcarce@yahoo.com.ar,,,-36.0169500,-60.0145330,Localización precisa,CONABIP,Comunitaria,1915,2018
06595060,06,06595,,Bibliotecas Populares,,Buenos Aires,Olavarria,Hinojo,Biblioteca Popular Domingo Faustino Sarmiento,Av.Mitre s/n,,7318,s/d,s/d,s/d,,,-36.8631170,-60.1631670,Localización precisa,CONABIP,Comunitaria,1930,2018
06413050,06,06413,,Bibliotecas Populares,,Buenos Aires,Junin,Junín,Biblioteca Popular Olegario V. Andrade,Belgrano 191,,B600GZC,2362,428071,olegan@ciudad.com.ar,,,-34.5905330,-60.9490670,Localización precisa,CONABIP,Comunitaria,1909,2018
06434010,06,06434,,Bibliotecas Populares,,Buenos Aires,Lanus,Lanús Este,Biblioteca Popular Libertador San Martín,Eva Perón 2597,,B1824ICK,11,42493631,libertadorsanmartin.bib_lanus@yahoo.com.ar,,,-34.7149670,-58.3716830,Localización precisa,CONABIP,Comunitaria,1917,2018
06441030,06,06441,,Bibliotecas Populares,,Buenos Aires,La Plata,La Plata,Biblioteca Popular Florentino Ameghino,Calle 58 Nº 774,,1900,221,4241631,bb001027@abc.gov.ar,,,-34.9225000,-57.9473170,Localización precisa,CONABIP,Comunitaria,1918,2018
06245010,06,06245,,Bibliotecas Populares,,Buenos Aires,Ensenada,Ensenada,Biblioteca Popular Mariano Moreno,Calle 48 Bis esq.126,,1925,11,42493631,cfpmm@yahoo.com.ar,,,-34.8976500,-57.9326830,Localización precisa,CONABIP,Comunitaria,1917,2018
06497060,06,06497,,Bibliotecas Populares,,Buenos Aires,Lujan,Luján,Biblioteca Popular Ameghino,San Martín 485,,B6700ZBA,2323,420329,abameghino@speedy.com.ar,,,-34.5657330,-59.1154500,Localización precisa,CONABIP,Comunitaria,1914,2018
06490010,06,06490,,Bibliotecas Populares,,Buenos Aires,Lomas de Zamora,Lomas de Zamora,Biblioteca Popular Antonio Mentruyt,Italia 44,,B1832DGB,11,42440837,bibliotecamentruyt@yahoo.com.ar,,,-34.7611330,-58.4011170,Localización precisa,CONABIP,Comunitaria,2000,2018
06329020,06,06329,,Bibliotecas Populares,,Buenos Aires,General Las Heras,General Las Heras,Biblioteca Popular Felipe de Robles (h,Las Heras 940,,B1741BIT,s/d,s/d,bpfelipederobles@yahoo.com.ar,,,-34.9166670,-58.9333330,Localización precisa,CONABIP,Comunitaria,1914,2018
06483040,06,06483,,Bibliotecas Populares,,Buenos Aires,Lobos,Lobos,Biblioteca Popular Domingo Faustino Sarmiento,Salgado 4143,,7240,2227,421607,ccplbsarmiento@yahoo.com.ar,,,-35.1697500,-59.0992000,Localización precisa,CONABIP,Comunitaria,1912,2018
06469080,06,06469,,Bibliotecas Populares,,Buenos Aires,Lincoln,Lincoln,Biblioteca Popular Municipal Domingo Faustino Sarmiento,Av.Massey 1439,,B6070CKB,2355,422394,bibliotecasarmiento@speedy.com.ar,,,-34.8700170,-61.5326500,Localización precisa,CONABIP,Comunitaria,1889,2018
06469080,06,06469,,Bibliotecas Populares,,Buenos Aires,Lincoln,Lincoln,Biblioteca Popular Juan Bautista Alberdi,Av.Alem 1160,,B6070AFY,2355,421436,cgbnalincoln@hotmail.com,,,-34.8691000,-61.5292170,Localización precisa,CONABIP,Comunitaria,1919,2018
06455030,06,06455,,Bibliotecas Populares,,Buenos Aires,Las Flores,Las Flores,Biblioteca Popular Ferrov. Ing. C. Echague,Leandro N.Alem 801,,B7200AIQ,s/d,s/d,s/d,,,-36.0145170,-59.1052670,Localización precisa,CONABIP,Comunitaria,1908,2018
06357110,06,06357,,Bibliotecas Populares,,Buenos Aires,General Pueyrredon,Mar del Plata,Biblioteca Popular General Manuel Belgrano,Mitre 2579,,B7600DSC,s/d,s/d,bibpop-belgrano@yahoo.com.ar,,,-38.0055330,-57.5545670,Localización precisa,CONABIP,Comunitaria,1930,2018
06756010,06,06756,,Bibliotecas Populares,,Buenos Aires,San Isidro,Martinez,Biblioteca Popular Bernardino Rivadavia,Aristóbulo del Valle 199,,B1640EPC,11,47929458,bpbrmartinez@ciudad.com.ar,,,-34.4864500,-58.4998830,Localización precisa,CONABIP,Comunitaria,1913,2018
06532020,06,06532,,Bibliotecas Populares,,Buenos Aires,Mercedes,Mercedes,Biblioteca Popular Domingo Faustino Sarmiento,Av.Mitre (29) 674,,6600,2324,432620,biblsarmientomercedes@hotmail.com,,,-34.6492000,-59.4315000,Localización precisa,CONABIP,Comunitaria,1887,2018
06574030,06,06574,,Bibliotecas Populares,,Buenos Aires,Navarro,Navarro,Biblioteca Popular Pública José R. de Erenchun,Calle 109 (Sarmiento Nº 67,,6605,2272,430660,biberenchu@copesnet.com.ar,,,-35.0057670,-59.2775500,Localización precisa,CONABIP,Comunitaria,1907,2018
06581040,06,06581,,Bibliotecas Populares,,Buenos Aires,Necochea,Necochea,Biblioteca Popular Andrés Ferreyra,Calle 54 Nº 3062,,B7630CSR,2262,424117,s/d,,,-38.5574500,-58.7389000,Localización precisa,CONABIP,Comunitaria,1930,2018
06588100,06,06588,,Bibliotecas Populares,,Buenos Aires,9 de Julio,9 de Julio,Biblioteca Popular Anastasio Prieto,Mitre 342,,6500,s/d,s/d,s/d,,,-35.4333330,-60.8666670,Localización precisa,CONABIP,Comunitaria,1930,2018
06595070,06,06595,,Bibliotecas Populares,,Buenos Aires,Olavarria,Olavarría,Biblioteca Popular Ferroviaria M.Gandhi,Bolivar 3031,,7400,2284,420893,bibliotecaferroviaria@hotmail.com,,,-36.8979670,-60.3239500,Localización precisa,CONABIP,Comunitaria,1904,2018
06595070,06,06595,,Bibliotecas Populares,,Buenos Aires,Olavarria,Olavarría,Biblioteca Popular Armando Collinet,Alsina 2659,,7400,2284,423317,bibliocollinet@hotmail.com,,,-36.8933330,-60.3253330,Localización precisa,CONABIP,Comunitaria,1909,2018
06700060,06,06700,,Bibliotecas Populares,,Buenos Aires,Saavedra,Pigüe,Biblioteca Popular Domingo Faustino Sarmiento,Av.Mitre 170,,8170,2923,476300,bib-sarmiento@s8.coopenet.com.ar,,,-37.6051170,-62.4039330,Localización precisa,CONABIP,Comunitaria,1914,2018
06623100,06,06623,,Bibliotecas Populares,,Buenos Aires,Pergamino,Pergamino,Biblioteca Popular Pública Municipal Dr. Menéndez,San Martín 838,,2700,2477,437327,bibliotecamenendez@yahoo.com.ar,,,-33.8955670,-60.5763000,Localización precisa,CONABIP,Comunitaria,1900,2018
06609080,06,06609,,Bibliotecas Populares,,Buenos Aires,Pehuajo,Pehuajó,Biblioteca Popular Bernardino Rivadavia,A.del Valle 567,,6450,2396,472225,bibrivadavia@gmail.com,,,-35.8094000,-61.8975670,Localización precisa,CONABIP,Comunitaria,1910,2018
06035010,06,06035,,Bibliotecas Populares,,Buenos Aires,Avellaneda,Piñeyro,Biblioteca Popular Veladas de estudio después del trabajo,Entre Ríos 731,,1870,11,42283687,s/d,,,-34.6719170,-58.3909830,Localización precisa,CONABIP,Comunitaria,1921,2018
06672010,06,06672,,Bibliotecas Populares,,Buenos Aires,Rauch,Rauch,Biblioteca Popular Guido y Spano,Av.San Martín 258,,B7203BPP,2297,440290,bibguidoyspanorauch@ciudad.com.ar,,,-36.7777170,-59.0922500,Localización precisa,CONABIP,Comunitaria,1920,2018
06210050,06,06210,,Bibliotecas Populares,,Buenos Aires,Chacabuco,Rawson,Biblioteca Popular Guillermo Rawson,25 de Mayo s/n,,6734,2352,491747,s/d,,,-34.6050500,-60.0668830,Localización precisa,CONABIP,Comunitaria,1920,2018
06756010,06,06756,,Bibliotecas Populares,,Buenos Aires,San Isidro,San Isidro,Biblioteca Popular Juan M. de Pueyrredón,9 de Julio 501,,1642,11,47321954,bpsi@arnet.com.ar,,,-34.4681500,-58.5104000,Localización precisa,CONABIP,Comunitaria,1898,2018
06770050,06,06770,,Bibliotecas Populares,,Buenos Aires,San Pedro,San Pedro,Biblioteca Popular Rafael Obligado,Bartolomé Mitre 460,,2930,3329,426168,bibliosp@redsp.com.ar,,,-33.6764330,-59.6639830,Localización precisa,CONABIP,Comunitaria,1872,2018
06735020,06,06735,,Bibliotecas Populares,,Buenos Aires,San Antonio de Areco,San Antonio de Areco,Biblioteca Popular Belgrano,Arellano 115,,2760,2326,452389,rot14@hotmail.com,,,-34.2433000,-59.4731500,Localización precisa,CONABIP,Comunitaria,2006,2018
06749010,06,06749,,Bibliotecas Populares,,Buenos Aires,San Fernando,San Fernando,Biblioteca Popular Juan N. Madero,Constitución 622,,1646,11,47456093,bibliotecamadero@hotmail.com,,,-34.4382930,-58.5602680,Localización precisa,CONABIP,Comunitaria,1873,2018
06728040,06,06728,,Bibliotecas Populares,,Buenos Aires,San Andres de Giles,San Andrés de Giles,Biblioteca Popular Alberdi,Rivadavia 658,,B6720AIN,2325,440319,s/d,,,-34.4433670,-59.4473000,Localización precisa,CONABIP,Comunitaria,1930,2018
06714060,06,06714,,Bibliotecas Populares,,Buenos Aires,Salto,Salto,Biblioteca Popular Dr. Tristán G. Lobos,Av.B.Mitre y San Martín,,B2741AVJ,2474,431411,bibliotlobos@speedy.com.ar,,,-34.2937330,-60.2536500,Localización precisa,CONABIP,Comunitaria,1901,2018
06700070,06,06700,,Bibliotecas Populares,,Buenos Aires,Saavedra,Saavedra,Biblioteca Popular Juan Bautista Alberdi,25 de Mayo 139,,8174,2923,497053,biblioteca_jbalberdi@yahoo.com.ar,,,-37.7686330,-62.3480830,Localización precisa,CONABIP,Comunitaria,1916,2018
06791050,06,06791,,Bibliotecas Populares,,Buenos Aires,Tandil,Tandil,Biblioteca Popular Juan Bautista Alberdi,Av.Colón 1341,,7000,2293,443670,bibliotecajbalberdi@yahoo.com.ar,,,-37.3153500,-59.1358330,Localización precisa,CONABIP,Comunitaria,1916,2018
06791050,06,06791,,Bibliotecas Populares,,Buenos Aires,Tandil,Tandil,Biblioteca Popular Bernardino Rivadavia,San Martín 516,,7000,2293,449093,bpbrtandil@hotmail.com,,,-37.3267670,-59.1377500,Localización precisa,CONABIP,Comunitaria,1908,2018
06826050,06,06826,,Bibliotecas Populares,,Buenos Aires,Trenque Lauquen,Trenque Lauquen,Biblioteca Popular Pública Rivadavia,Villegas 668,,6400,2392,422837,bibliotecarivadavia_tl@yahoo.com.ar,,,-35.9747000,-62.7322000,Localización precisa,CONABIP,Comunitaria,1903,2018
06441030,06,06441,,Bibliotecas Populares,,Buenos Aires,La Plata,Villa Elisa,Biblioteca Popular Alejo Iglesias,6 (ex12) 1086,,B1894GPP,221,4730649,biblio_aiglesias@yahoo.com.ar,,,-34.8520170,-58.0805500,Localización precisa,CONABIP,Comunitaria,1920,2018
06035010,06,06035,,Bibliotecas Populares,,Buenos Aires,Avellaneda,Gerli,Biblioteca Popular Juan Bautista Alberdi,Limay 1234,,1870,11,42042651,carloslaurreaga@hotmail.com,,,-34.6781830,-58.3736670,Localización precisa,CONABIP,Comunitaria,1918,2018
06154050,06,06154,,Bibliotecas Populares,,Buenos Aires,Carlos Tejedor,Tres Algarrobos,Biblioteca Popular Bernardino Rivadavia,25 de Mayo 420,,B6231ABJ,3388,492857,bipop@servicoopsa.com.ar,,,-35.1966330,-62.7735670,Localización precisa,CONABIP,Comunitaria,1920,2018
06833100,06,06833,,Bibliotecas Populares,,Buenos Aires,Tres Arroyos,Tres Arroyos,Biblioteca Popular Domingo Faustino Sarmiento,Av.Moreno 334,,7500,2983,430721,bibsarmiento@3net.com.ar,,,-38.3792330,-60.2722830,Localización precisa,CONABIP,Comunitaria,1899,2018
06798020,06,06798,,Bibliotecas Populares,,Buenos Aires,Tapalque,Tapalqué,Biblioteca Popular General Bartolomé Mitre,9 de Julio 610,,7303,s/d,s/d,s/d,,,-36.3580330,-60.0242170,Localización precisa,CONABIP,Comunitaria,1921,2018
06700010,06,06700,,Bibliotecas Populares,,Buenos Aires,Saavedra,Arroyo Corto,Biblioteca Popular Juan Bautista Alberdi,Biga y Gossetti,,8172,s/d,s/d,biblioarroyocorto@s8.coopenet.com.ar,,,-37.5098830,-62.3144670,Localización precisa,CONABIP,Comunitaria,1942,2018
06154010,06,06154,,Bibliotecas Populares,,Buenos Aires,Carlos Tejedor,Carlos Tejedor,Biblioteca Popular Roque Saénz Peña,Alberto H.Almirón 148,,B6455ADD,2357,420574,bibliotejedor@yahoo.com.ar,,,-35.3920670,-62.4205330,Localización precisa,CONABIP,Comunitaria,1916,2018
06161010,06,06161,,Bibliotecas Populares,,Buenos Aires,Carmen de Areco,Carmen de Areco,Biblioteca Popular Juan Bautista Alberdi,Rivadavia 586,,B6725BNP,2273,440522,bibliocada@yahoo.com.ar,,,-34.3780830,-59.8214000,Localización precisa,CONABIP,Comunitaria,1914,2018
06308010,06,06308,,Bibliotecas Populares,,Buenos Aires,General Guido,General Guido,Biblioteca Popular Carlos Guido Spano,25 de Mayo,,7118,s/d,s/d,s/d,,,-36.6411330,-57.7920000,Localización precisa,CONABIP,Comunitaria,1930,2018
06476030,06,06476,,Bibliotecas Populares,,Buenos Aires,Loberia,Loberia,Biblioteca Popular Domingo Faustino Sarmiento,Sarmiento 120,,7635,2261,440505,s/d,,,-38.1646500,-58.7839830,Localización precisa,CONABIP,Comunitaria,1918,2018
06623120,06,06623,,Bibliotecas Populares,,Buenos Aires,Pergamino,Rancagua,Biblioteca Popular Domingo Faustino Sarmiento,Santa Ana 380,,2701,2477,493017,s/d,,,-34.0280670,-60.5052830,Localización precisa,CONABIP,Comunitaria,1919,2018
06371010,06,06371,,Bibliotecas Populares,,Buenos Aires,General San Martin,General San Martín,Biblioteca Popular General San Martín,Matheu (56) 3728,,1650,11,47240170,bibliopopsanmartin2001@yahoo.com.ar,,,-34.5757670,-58.5391170,Localización precisa,CONABIP,Comunitaria,1914,2018
06434010,06,06434,,Bibliotecas Populares,,Buenos Aires,Lanus,Valentín Alsina,Biblioteca Popular y Sociedad Fomento Domingo Faustino Sarmiento,Av. Pte. Perón 3065,,1822,11,42283676,bibliotecasarmiento@yahoo.com.ar,,,-34.6710330,-58.4093830,Localización precisa,CONABIP,Comunitaria,1918,2018
30098040,30,30098,,Bibliotecas Populares,,Entre Ríos,Uruguay,Concepción del Uruguay,Biblioteca Popular El porvenir,San Martín 782,,3260,3442,426540,bibliotecapopularelporvenir@yahoo.com.ar,,,-32.4855670,-58.2333670,Localización precisa,CONABIP,Comunitaria,1872,2018
30008020,30,30008,,Bibliotecas Populares,,Entre Ríos,Colon,Colón,Biblioteca Popular Fiat Lux,12 de Abril 208,,3280,3447,421597,fiatlux_colon@ciudad.com.ar,,,-32.2205000,-58.1372330,Localización precisa,CONABIP,Comunitaria,1876,2018
30015060,30,30015,,Bibliotecas Populares,,Entre Ríos,Concordia,Concordia,Biblioteca Popular Olegario V. Andrade,1º de Mayo 141,,E3200EDC,345,4214630,man.1872@concordia.com.ar,,,-31.3980830,-58.0159330,Localización precisa,CONABIP,Comunitaria,1872,2018
30021080,30,30021,,Bibliotecas Populares,,Entre Ríos,Diamante,Diamante,Biblioteca Popular Diamante,Eva Perón 628,,3105,343,4983480,bpdte@santafe.com.ar,,,-32.0685830,-60.6367500,Localización precisa,CONABIP,Comunitaria,1883,2018
30113070,30,30113,,Bibliotecas Populares,,Entre Ríos,Villaguay,Villa Dominguez,Biblioteca Popular Domingo Faustino Sarmiento,Rivadavia 1482,,3246,3455,5492146,bpsarmiento@viguay.com.ar,,,-31.9861830,-58.9589670,Localización precisa,CONABIP,Comunitaria,1924,2018
30070010,30,30070,,Bibliotecas Populares,,Entre Ríos,La Paz,Bovril,Biblioteca Popular Domingo Faustino Sarmiento,San Martín 345,,3142,s/d,s/d,s/d,,,-31.3433970,-59.4457500,Localización precisa,CONABIP,Comunitaria,1939,2018
30021120,30,30021,,Bibliotecas Populares,,Entre Ríos,Diamante,General Ramirez,Biblioteca Popular Luis Lorenzo Etchevehere,Avellaneda 26,,3164,343,4902166,biblioteca_ramirez@yahoo.com.ar,,,-32.1731670,-60.1973170,Localización precisa,CONABIP,Comunitaria,1930,2018
30028070,30,30028,,Bibliotecas Populares,,Entre Ríos,Federacion,Federación,Biblioteca Popular Rivadavia,Av. Entre Ríos 67,,3206,3456,482444,biblio_pop_federacion@hotmail.com,,,-30.9851500,-57.9207670,Localización precisa,CONABIP,Comunitaria,1896,2018
30056070,30,30056,,Bibliotecas Populares,,Entre Ríos,Gualeguaychu,Gualeguaychú,Biblioteca Popular Olegario V. Andrade,Camila Nievas 78,,2820,3446,427287,s/d,,,-33.0097170,-58.5092500,Localización precisa,CONABIP,Comunitaria,1898,2018
30056070,30,30056,,Bibliotecas Populares,,Entre Ríos,Gualeguaychu,Gualeguaychú,Biblioteca Popular Domingo Faustino Sarmiento,San Martín 900,,2820,3446,422702,bibliosarmiento@yahoo.com,,,-33.0101670,-58.5169170,Localización precisa,CONABIP,Comunitaria,1869,2018
30049040,30,30049,,Bibliotecas Populares,,Entre Ríos,Gualeguay,Gualeguay,Biblioteca Popular Carlos Mastronardi,25 de Mayo 414,,2840,3444,422048,bibpopmastronardi@yahoo.com.ar,,,-33.1496330,-59.3126000,Localización precisa,CONABIP,Comunitaria,1892,2018
30077070,30,30077,,Bibliotecas Populares,,Entre Ríos,Nogoya,Nogoyá,Biblioteca Popular Fermín Chávez de Nogoyá,Caseros 951,,E3150CAW,3435,423391,bibliotecapopular_nogoya@hotmail.com,,,-32.3985670,-59.7875670,Localización precisa,CONABIP,Comunitaria,1875,2018
30084160,30,30084,,Bibliotecas Populares,,Entre Ríos,Parana,Paraná,Biblioteca Popular Del Paraná,Buenos Aires 256,,3100,343,4313014,info@BibliotecaParana.org.ar,,,-31.7289330,-60.5302330,Localización precisa,CONABIP,Comunitaria,1873,2018
30070080,30,30070,,Bibliotecas Populares,,Entre Ríos,La Paz,Santa Elena,Biblioteca Popular Escolar Urquiza,Belgrano 457,,E3192APE,3437,482439,biblioteca_urquiza@arg.net.ar,,,-30.9469330,-59.7954670,Localización precisa,CONABIP,Comunitaria,1919,2018
30056110,30,30056,,Bibliotecas Populares,,Entre Ríos,Gualeguaychu,Urdinarrain,Biblioteca Popular Urdinarrain,Av.Libertad 353 (y A.del Valle,,2826,3446,480513,bibpopurd@urdi.com.ar,,,-32.6860500,-58.8899830,Localización precisa,CONABIP,Comunitaria,1912,2018
30105060,30,30105,,Bibliotecas Populares,,Entre Ríos,Victoria,Victoria,Biblioteca Popular Municipal Domingo Faustino Sarmiento,9 de julio (esq. Piaggio) 202,,3153,3436,426108,bibliotecamdv@ciudad.com.ar,,,-32.6230830,-60.1529000,Localización precisa,CONABIP,Comunitaria,1895,2018
30008020,30,30008,,Bibliotecas Populares,,Entre Ríos,Colon,Villa Elisa,Biblioteca Popular General Mitre,Av.Mitre 1160,,3265,3447,481042,bibliotecagralmitre@ciudad.com.ar,,,-32.1649500,-58.4029330,Localización precisa,CONABIP,Comunitaria,1904,2018
30035030,30,30035,,Bibliotecas Populares,,Entre Ríos,Federal,Federal,Biblioteca Popular Domingo Faustino Sarmiento,Paraná e/Donovan y Antelo,,3180,2625,426393,bibliofederal@hotmail.com,,,-30.9565670,-58.7789000,Localización precisa,CONABIP,Comunitaria,1912,2018
30113080,30,30113,,Bibliotecas Populares,,Entre Ríos,Villaguay,Villaguay,Biblioteca Popular Bartolomé Mitre,San Martín 230,,3240,3455,423175,bibpop@clavis.com.ar,,,-31.8678330,-59.0275500,Localización precisa,CONABIP,Comunitaria,1873,2018
30113080,30,30113,,Bibliotecas Populares,,Entre Ríos,Villaguay,Villaguay,Biblioteca Popular Primer Presidente Bernardino Rivadavia,Moreno (Escuela Sup.Nº 1) 650,,E3240ETN,3455,421325,biblioteca@viguay.com.ar,,,-31.8640330,-59.0295670,Localización precisa,CONABIP,Comunitaria,1893,2018
30028010,30,30028,,Bibliotecas Populares,,Entre Ríos,Federacion,Chajarí,Biblioteca Popular Urquíza,Av.Belgrano 1375,,E3228CKA,3456,422022,bibliotecapopularurquiza@multichajari.com.ar,,,-30.7571000,-57.9817170,Localización precisa,CONABIP,Comunitaria,1909,2018
30008090,30,30008,,Bibliotecas Populares,,Entre Ríos,Colon,San José,Biblioteca Popular General Urquíza,25 de Mayo 1833,,E3283ADC,3447,470530,danielcreppy@yahoo.com.ar,,,-32.2093240,-58.2188640,Localización precisa,CONABIP,Comunitaria,1904,2018
30015060,30,30015,,Bibliotecas Populares,,Entre Ríos,Concordia,Concordia,Biblioteca Popular Amelia Podesta de Gorostiaga,Bolivia 593,,E3200BTA,345,4230079,gorostiaga_biblioteca@hotmail.com,,,-31.3993670,-58.0084000,Localización precisa,CONABIP,Comunitaria,1917,2018
30091090,30,30091,,Bibliotecas Populares,,Entre Ríos,Tala,Macia,Biblioteca Popular Mario Domingo Carruego,Gualeguaychu 433,,3177,3445,461238,bibliotecacarruego@gmail.com,,,-32.1735330,-59.3980830,Localización precisa,CONABIP,Comunitaria,1920,2018
82014020,82,82014,,Bibliotecas Populares,,Santa Fe,Caseros,Arteaga,Biblioteca Popular Sarmiento,Bv.San Martín 246,,2187,3467,4450194,s/d,,,-33.0917170,-61.7917170,Localización precisa,CONABIP,Comunitaria,1915,2018
82014050,82,82014,,Bibliotecas Populares,,Santa Fe,Caseros,Casilda,Biblioteca Popular Carlos Casado,L.de La Torre 2369,,2170,3464,422144,bibcasado@dat1.net.ar,,,-33.0468670,-61.1680830,Localización precisa,CONABIP,Comunitaria,1908,2018
82091060,82,82091,,Bibliotecas Populares,,Santa Fe,San Cristobal,Ceres,Biblioteca Popular Domingo Faustino Sarmiento,Av. de Mayo 238,,2340,3491,422432,sarmiento@interceres.com.ar,,,-29.8805330,-61.9440170,Localización precisa,CONABIP,Comunitaria,1910,2018
82056030,82,82056,,Bibliotecas Populares,,Santa Fe,Iriondo,Cañada de Gómez,Biblioteca Popular Bernardino Rivadavia,Moreno 232,,2500,3471,421985,bibliobr@mcg.org.ar,,,-32.8184670,-61.3960000,Localización precisa,CONABIP,Comunitaria,1920,2018
82084090,82,82084,,Bibliotecas Populares,,Santa Fe,Rosario,Coronel Bogado,Biblioteca Popular Mariano Moreno,Eleuterio Varela 565,,2103,3402,491164,bibliotecabogado@yahoo.com.ar,,,-33.3149500,-60.6011500,Localización precisa,CONABIP,Comunitaria,1919,2018
82105090,82,82105,,Bibliotecas Populares,,Santa Fe,San Jeronimo,Coronda,Biblioteca Popular Coronel José Rodríguez,España  1815,,S2240AUO,342,4911197,bibliocoronda@hotmail.com,,,-31.9741830,-60.9155330,Localización precisa,CONABIP,Comunitaria,1912,2018
82028080,82,82028,,Bibliotecas Populares,,Santa Fe,Constitucion,Firmat,Biblioteca Popular Nosotros,Bv.Colón 920,,S2630BQV,3465,425383,bibliopopnosotros@firmat.net.ar,,,-33.4594830,-61.4856330,Localización precisa,CONABIP,Comunitaria,1919,2018
82105130,82,82105,,Bibliotecas Populares,,Santa Fe,San Jeronimo,Galvez,Biblioteca Popular Dr. Andrés Egaña,Mitre y Rivadavia,,2252,3404,480850,bibliotecagalvez@cablenet.com.ar,,,-32.0298500,-61.2189500,Localización precisa,CONABIP,Comunitaria,1905,2018
82133170,82,82133,,Bibliotecas Populares,,Santa Fe,Vera,Vera,Biblioteca Popular Dr. Allende Lezama,San Martín 1631,,3550,3483,421189,s/d,,,-29.4653670,-60.2116170,Localización precisa,CONABIP,Comunitaria,1907,2018
82028110,82,82028,,Bibliotecas Populares,,Santa Fe,Constitucion,Juan B.Molina,Biblioteca Popular Juan Bautista Alberdi,Sarmiento 461,,S2104API,3460,498433,bibliomolina@coopjbmolina.com.ar,,,-33.5035100,-60.5126300,Localización precisa,CONABIP,Comunitaria,1918,2018
82049150,82,82049,,Bibliotecas Populares,,Santa Fe,General Obligado,Malabrigo,Biblioteca Popular Del Centro Sociedad Cosmopolita,Moreno 1784,,3572,3482,454230,biblioteca@malabrigo.com,,,-29.3456330,-59.9662170,Localización precisa,CONABIP,Comunitaria,1922,2018
82091180,82,82091,,Bibliotecas Populares,,Santa Fe,San Cristobal,Moisés Ville,Biblioteca Popular Barón Hirsch,Moreno 243,,2313,3409,420375,bpbaronhirsch@sunchanet.com.ar,,,-30.7152330,-61.4697830,Localización precisa,CONABIP,Comunitaria,1913,2018
82091180,82,82091,,Bibliotecas Populares,,Santa Fe,San Cristobal,Moisés Ville,Biblioteca Popular Domingo Faustino Sarmiento,Remedios de Escalada 415,,2313,3409,420067,s/d,,,-30.7122000,-61.4714170,Localización precisa,CONABIP,Comunitaria,1917,2018
82119090,82,82119,,Bibliotecas Populares,,Santa Fe,San Lorenzo,Pujato,Biblioteca Popular Bernardino Rivadavia,Lisandro de la Torre 596,,2123,3464,494664,bibpop@dat1.net.ar,,,-33.0182000,-61.0438000,Localización precisa,CONABIP,Comunitaria,1920,2018
82084070,82,82084,,Bibliotecas Populares,,Santa Fe,Rosario,Arroyo Seco,Biblioteca Popular Bernardino Rivadavia,Belgrano 514,,2128,3402,427050,info@biblioarroyo.com.ar,,,-33.1579330,-60.5110670,Localización precisa,CONABIP,Comunitaria,1918,2018
82084270,82,82084,,Bibliotecas Populares,,Santa Fe,Rosario,Rosario,Biblioteca Popular Escuela de la A.de Muj.de Ros.,Buenos Aires 1290,,2000,341,4494581,biblioteca440@ciudad.com.ar,,,-32.9536330,-60.6343330,Localización precisa,CONABIP,Comunitaria,1872,2018
82084270,82,82084,,Bibliotecas Populares,,Santa Fe,Rosario,Rosario,Biblioteca Popular Ped.Infantil Eudoro Díaz,Santa Fe 2917,,2000,341,4232362,bibliotecapedagogicarosariorrpp@hotmail.com,,,-32.9406160,-60.6627000,Localización precisa,CONABIP,Comunitaria,1891,2018
82084270,82,82084,,Bibliotecas Populares,,Santa Fe,Rosario,Rosario,Biblioteca Popular Almafuerte,Salta 2558,,2000,11,4724501,stefanotoledo56@fibertel.com.ar,,,-32.9359000,-60.6564830,Localización precisa,CONABIP,Comunitaria,1918,2018
82063170,82,82063,,Bibliotecas Populares,,Santa Fe,La Capital,Santa Fe,Biblioteca Popular Bartolomé Mitre,4 de Enero 1433,,3000,342,4582329,bibliomitre@gigared.com,,,-31.6579500,-60.7154670,Localización precisa,CONABIP,Comunitaria,1907,2018
82091220,82,82091,,Bibliotecas Populares,,Santa Fe,San Cristobal,San Cristóbal,Biblioteca Popular San Martín,Alvear 646,,3070,3408,423835,bsmartin@cisc.net.at,,,-30.3108500,-61.2329500,Localización precisa,CONABIP,Comunitaria,1910,2018
82070230,82,82070,,Bibliotecas Populares,,Santa Fe,Las Colonias,San Carlos Centro,Biblioteca Popular Centro Rivadavia,Presidente Perón 442,,4103,3404,422129,bibliotecapop@scarlos.com.ar,,,-31.7260500,-61.0905830,Localización precisa,CONABIP,Comunitaria,1911,2018
82070250,82,82070,,Bibliotecas Populares,,Santa Fe,Las Colonias,San Carlos Sud,Biblioteca Popular Gottfried Keller,San Martín 559,,S3017ATK,3404,422363,bibliotecagkeller@bibliotecapopulargk.arnetbiz.com,,,-31.7566330,-61.1002830,Localización precisa,CONABIP,Comunitaria,1889,2018
82063160,82,82063,,Bibliotecas Populares,,Santa Fe,La Capital,San José del Rincón,Biblioteca Popular Domingo G. Silva,San Martín 1401,,3001,342,4971201,dgsilva23@hotmail.com,,,-31.6050500,-60.5724830,Localización precisa,CONABIP,Comunitaria,1918,2018
82105250,82,82105,,Bibliotecas Populares,,Santa Fe,San Jeronimo,San Genaro Norte,Biblioteca Popular Rivadavia,San Martín y Chavarri,,S2147BCU,3401,493306,bib.pop.rivadavia@co19set.com.ar,,,-32.3634670,-61.3417500,Localización precisa,CONABIP,Comunitaria,1918,2018
82028230,82,82028,,Bibliotecas Populares,,Santa Fe,Constitucion,Villa Constitución,Biblioteca Popular Manuel Belgrano,Bv. Dorrego 1498,,2919,3400,474566,bpmanuelbelgrano@hotmail.com,,,-33.2316830,-60.3301500,Localización precisa,CONABIP,Comunitaria,1930,2018
82028230,82,82028,,Bibliotecas Populares,,Santa Fe,Constitucion,Villa Constitución,Biblioteca Popular María Perrisol,San Martín 851,,2919,3400,476406,mariaperrisol@arnet.com.ar,,,-33.2254500,-60.3323330,Localización precisa,CONABIP,Comunitaria,1880,2018
82042290,82,82042,,Bibliotecas Populares,,Santa Fe,General Lopez,Venado Tuerto,Biblioteca Popular Florentino Ameghino,Juan B. Justo 42,,2600,3462,420986,biblioameghino@powervt.com.ar,,,-33.7518330,-61.9599830,Localización precisa,CONABIP,Comunitaria,1930,2018
82084030,82,82084,,Bibliotecas Populares,,Santa Fe,Rosario,Alvarez,Biblioteca Popular Carlos Guido Spano,Bv.San Martín 461,,2107,3402,461202,bibliocgspano@msn.com,,,-33.1296330,-60.8006830,Localización precisa,CONABIP,Comunitaria,1917,2018
82014040,82,82014,,Bibliotecas Populares,,Santa Fe,Caseros,Bigand,Biblioteca Popular Domingo Faustino Sarmiento,Sarmiento (Escuela Fiscal Nº 215) 459,,S2177BGG,3464,461536,bibliolili@yahoo.com.ar,,,-33.3743170,-61.1854500,Localización precisa,CONABIP,Comunitaria,1931,2018
06056010,06,06056,,Bibliotecas Populares,,Buenos Aires,Bahia Blanca,Ingeniero White,Biblioteca Popular Mariano Moreno,Mascarello 3860,,8103,291,4573358,mmorenoiw@hotmail.com,,,-38.7825170,-62.2663830,Localización precisa,CONABIP,Comunitaria,1925,2018
82126020,82,82126,,Bibliotecas Populares,,Santa Fe,San Martin,Carlos Pellegrini,Biblioteca Popular José Mármol,Vicente López y 25 de Mayo,,S2453AAM,3401,480682,bibliomarmol@live.com,,,-32.0485170,-61.7814670,Localización precisa,CONABIP,Comunitaria,1917,2018
82014070,82,82014,,Bibliotecas Populares,,Santa Fe,Caseros,Chañar Ladeado,Biblioteca Popular General Urquíza,San Martín 908,,2643,3468,481666,bibliotecaurquiza@arnet.com.ar,,,-33.3206170,-62.0374000,Localización precisa,CONABIP,Comunitaria,1920,2018
82028100,82,82028,,Bibliotecas Populares,,Santa Fe,Constitucion,Godoy,Biblioteca Popular Mariano Moreno,Italia 157,,S2921AED,3460,497120,mmoreno@steel.com.ar,,,-33.3676500,-60.5098000,Localización precisa,CONABIP,Comunitaria,1918,2018
82105190,82,82105,,Bibliotecas Populares,,Santa Fe,San Jeronimo,Maciel,Biblioteca Popular Dr. Pedro S. Alcacer,Salta 661,,S2209BBG,3476,470331,biblalcacer@hotmail.com,,,-32.4568000,-60.8931500,Localización precisa,CONABIP,Comunitaria,1919,2018
82028140,82,82028,,Bibliotecas Populares,,Santa Fe,Constitucion,Máximo Paz,Biblioteca Popular Estudio y labor S. Pastorino,25 de Mayo 727,,2115,3460,496652,bibliotecapeylsp@yahoo.com.ar,,,-33.4817000,-60.9572170,Localización precisa,CONABIP,Comunitaria,1917,2018
82028170,82,82028,,Bibliotecas Populares,,Santa Fe,Constitucion,Peyrano,Biblioteca Popular Bartolomé Mitre,Dr.Brunet 231,,2113,3460,470369,bibliopeyrano@gmail.com,,,-33.5382170,-60.8050830,Localización precisa,CONABIP,Comunitaria,1920,2018
82084270,82,82084,,Bibliotecas Populares,,Santa Fe,Rosario,Rosario,Biblioteca Popular Estímulo al estudio,Av.Alberdi 1030,,2000,341,4543871,bibpopee@yahoo.com.ar,,,-32.9159500,-60.6850000,Localización precisa,CONABIP,Comunitaria,1911,2018
82063170,82,82063,,Bibliotecas Populares,,Santa Fe,La Capital,Santa Fe,Biblioteca Popular Mariano Moreno,M. Candiotti 3341,,3000,342,4528341,biblioteca_moreno@yahoo.com.ar,,,-31.6387500,-60.6959500,Localización precisa,CONABIP,Comunitaria,1912,2018
82042190,82,82042,,Bibliotecas Populares,,Santa Fe,General Lopez,Melincué,Biblioteca Popular Bernardino Rivadavia,Laprida 75,,2728,3465,499299,bibliopopular488@hotmail.com,,,-33.6579500,-61.4531000,Localización precisa,CONABIP,Comunitaria,1917,2018
82119130,82,82119,,Bibliotecas Populares,,Santa Fe,San Lorenzo,San Lorenzo,Biblioteca Escolar Popular Domingo Faustino Sarmiento,Belgrano 720,,2200,3476,422701,s/d,,,-32.7469330,-60.7354670,Localización precisa,CONABIP,Comunitaria,1918,2018
82077080,82,82077,,Bibliotecas Populares,,Santa Fe,9 de Julio,Tostado,Biblioteca Popular 9 de Julio,J.de Garay 1247,,3060,3491,470817,bigu02@hotmail.com,,,-29.2324670,-61.7783330,Localización precisa,CONABIP,Comunitaria,1930,2018
82042290,82,82042,,Bibliotecas Populares,,Santa Fe,General Lopez,Venado Tuerto,Biblioteca Popular Juan Bautista Alberdi,Mitre 855,,S2600IRQ,3462,423704,biblioalberdi-vt@powervt.com.ar,,,-33.7495500,-61.9648830,Localización precisa,CONABIP,Comunitaria,1915,2018
18007010,18,18007,,Bibliotecas Populares,,Corrientes,Bella Vista,Bella Vista,Biblioteca Popular Domingo Faustino Sarmiento,Corrientes 957,,3432,377,450626,gracielaalderete@yahoo.com.ar,,,-28.5055330,-59.0404170,Localización precisa,CONABIP,Comunitaria,1901,2018
18021020,18,18021,,Bibliotecas Populares,,Corrientes,Capital,Corrientes,Biblioteca Popular Popular,C.Pellegrini 1359,,3400,3783,428402,bibliotecapopular@gigared.com,,,-27.4656170,-58.8332330,Localización precisa,CONABIP,Comunitaria,1873,2018
18021020,18,18021,,Bibliotecas Populares,,Corrientes,Capital,Corrientes,Biblioteca Popular José R. Mariño,Santa Fé 847,,3400,3783,433614,l.@aol.com,,,-27.4675330,-58.8303170,Localización precisa,CONABIP,Comunitaria,1930,2018
18070020,18,18070,,Bibliotecas Populares,,Corrientes,Goya,Goya,Biblioteca Popular Domingo Faustino Sarmiento,Mariano I.Loza 564,,3450,3777,432190,bibliotecagoya@arnet.com.ar,,,-29.1433170,-59.2652000,Localización precisa,CONABIP,Comunitaria,1911,2018
18063030,18,18063,,Bibliotecas Populares,,Corrientes,General Paz,Caa Cati,Biblioteca Popular Dr. Juan Manuel Rivera,Coronel Esquivel s/n,,3407,s/d,s/d,s/d,,,-27.7500000,-57.6166690,Localización precisa,CONABIP,Comunitaria,1914,2018
18063010,18,18063,,Bibliotecas Populares,,Corrientes,General Paz,Ita Ibate,Biblioteca Popular Bernardino Rivadavia,San Martín y 9 de Julio,,W3480AQC,11,46740149,caripara@chipion.com.ar,,,-27.4254500,-57.3377500,Localización precisa,CONABIP,Comunitaria,1930,2018
18112050,18,18112,,Bibliotecas Populares,,Corrientes,Monte Caseros,Monte Caseros,Biblioteca Popular Marcelino A. Elizondo,Bergamini 273,,3220,3775,423883,biblio506@hotmail.com,,,-30.2536000,-57.6294330,Localización precisa,CONABIP,Comunitaria,1909,2018
18105030,18,18105,,Bibliotecas Populares,,Corrientes,Mercedes,Mercedes,Biblioteca Popular Literaria Belgrano,San Martín 650,,3470,3773,421420,literaria@payubre.net,,,-29.1842170,-58.0719500,Localización precisa,CONABIP,Comunitaria,1910,2018
18119030,18,18119,,Bibliotecas Populares,,Corrientes,Paso de los Libres,Paso de los Libres,Biblioteca Popular Domingo Faustino Sarmiento,Madariaga 870,,3230,3772,424643,bsarmiento@arnet.com.ar,,,-29.7102330,-57.0892330,Localización precisa,CONABIP,Comunitaria,1904,2018
18168040,18,18168,,Bibliotecas Populares,,Corrientes,Santo Tome,Santo Tomé,Biblioteca Popular Bernardino Rivadavia,Victor Navajas 844,,3340,3756,421316,biblioteca512@hotmail.com,,,-28.5519830,-56.0350330,Localización precisa,CONABIP,Comunitaria,1930,2018
18035020,18,18035,,Bibliotecas Populares,,Corrientes,Curuzu Cuatia,Curuzú Cuatía,Biblioteca Popular Rivadavia,Dr.Tomás Pozzi 560,,3460,3774,424499,acyac-bpr@curuzu.net,,,-29.7942330,-58.0567170,Localización precisa,CONABIP,Comunitaria,1914,2018
18161040,18,18161,,Bibliotecas Populares,,Corrientes,San Roque,Pedro R.Fernandez,Biblioteca Popular Carlos Guido Spano,Gobernador s/n,,3446,s/d,s/d,s/d,,,-28.7512000,-58.6549170,Localización precisa,CONABIP,Comunitaria,1948,2018
18161050,18,18161,,Bibliotecas Populares,,Corrientes,San Roque,San Roque,Biblioteca Popular General José de San Martín,Desiderio Sosa 625,,3448,s/d,s/d,s/d,,,-28.5741670,-58.7088830,Localización precisa,CONABIP,Comunitaria,1914,2018
18175010,18,18175,,Bibliotecas Populares,,Corrientes,Sauce,Sauce,Biblioteca Popular Almafuerte,Bartolomé Mitre 783,,3463,s/d,s/d,bibliotecapopularalmafuerte@hotmail.com,,,-30.0851170,-58.7864670,Localización precisa,CONABIP,Comunitaria,1918,2018
14161010,14,14161,,Bibliotecas Populares,,Córdoba,Tercero Arriba,Almafuerte,Biblioteca Popular Almafuerte,Av.Buenos Aires 263,,5854,3571,472090,bibliotecapopularalmafuerte.bi@gmail.com,,,-32.1918330,-64.2556170,Localización precisa,CONABIP,Comunitaria,1926,2018
14182060,14,14182,,Bibliotecas Populares,,Córdoba,Union,Bell Ville,Biblioteca Popular Dr. Ramón J. Carcano,Córdoba y Sarmiento,,2550,3534,426253,bprjcarcano@yahoo.com.ar,,,-32.6297330,-62.6915000,Localización precisa,CONABIP,Comunitaria,1907,2018
14014010,14,14014,,Bibliotecas Populares,,Córdoba,Capital,Córdoba,Biblioteca Popular Vélez Sárfield,Lima 995,,X5004FQI,351,4232460,comunicacion@bpvs.com.ar,,,-31.4136170,-64.1700000,Localización precisa,CONABIP,Comunitaria,1909,2018
14028050,14,14028,,Bibliotecas Populares,,Córdoba,Cruz del Eje,Cruz del Eje,Biblioteca Popular Jorge Newbery,San Martín 147,,5280,3549,424824,ctcnewbery@ciudad.com.ar,,,-30.7186500,-64.8069670,Localización precisa,CONABIP,Comunitaria,1917,2018
14042050,14,14042,,Bibliotecas Populares,,Córdoba,General San Martin,Etruria,Biblioteca Popular Domingo Faustino Sarmiento,Bv.Sarmiento 257,,X2681AIC,353,4920444,bibliotecasarmiento@etruria.net.ar,,,-32.9390830,-63.2464830,Localización precisa,CONABIP,Comunitaria,1916,2018
14084010,14,14084,,Bibliotecas Populares,,Córdoba,Presidente Roque Saenz Pena,General Levalle,Biblioteca Popular Florentino Ameghino,Rivadavia 101,,6132,3385,480737,bibpoplevalle@levacoop.com.ar,,,-34.0093000,-63.9239330,Localización precisa,CONABIP,Comunitaria,1914,2018
14035040,14,14035,,Bibliotecas Populares,,Córdoba,General Roca,Huinca Renanco,Biblioteca Popular Domingo Faustino Sarmiento,San Martín 305,,6270,2336,443237,b.sarmiento@hotmail.com,,,-34.8418170,-64.3714500,Localización precisa,CONABIP,Comunitaria,1919,2018
14021140,14,14021,,Bibliotecas Populares,,Córdoba,Colon,Jesús María,Biblioteca Popular Domingo Faustino Sarmiento,Tucumán 595,,5220,s/d,s/d,bibliotecapopsarmiento@yahoo.com.ar,,,-30.9814000,-64.0976330,Localización precisa,CONABIP,Comunitaria,1912,2018
14084030,14,14084,,Bibliotecas Populares,,Córdoba,Presidente Roque Saenz Pena,Laboulaye,Biblioteca Popular Juan Bautista Alberdi,España  7,,6120,3385,420001,bpalberdi@arnet.com.ar,,,-34.1247170,-63.3872500,Localización precisa,CONABIP,Comunitaria,1913,2018
14098230,14,14098,,Bibliotecas Populares,,Córdoba,Rio Cuarto,Río Cuarto,Biblioteca Popular Mariano Moreno,Sobremonte 1079,,5800,358,4646835,bibliotecapopularmm@gmail.com,,,-33.1276500,-64.3496170,Localización precisa,CONABIP,Comunitaria,1910,2018
14119190,14,14119,,Bibliotecas Populares,,Córdoba,Rio Segundo,Río Segundo,Biblioteca Popular Domingo Faustino Sarmiento,Bv.Sarmiento 1336,,5960,3572,428233,bibsarmiento@hotmail.com,,,-31.6489330,-63.9132500,Localización precisa,CONABIP,Comunitaria,1916,2018
14140360,14,14140,,Bibliotecas Populares,,Córdoba,San Justo,San Francisco,Biblioteca Popular Centro cultural y Biblioteca Popular,Libertador Norte 159,,2400,3564,425205,bibliop2006@yahoo.com.ar,,,-31.4280500,-62.0848500,Localización precisa,CONABIP,Comunitaria,1926,2018
14042170,14,14042,,Bibliotecas Populares,,Córdoba,General San Martin,Villa María,Biblioteca Popular Bernardino Rivadavia,Mitre 126,,5900,353,4520227,secretaria_gral@bibliotecarivadavia.edu.ar,,,-32.4141170,-63.2450330,Localización precisa,CONABIP,Comunitaria,1904,2018
14140270,14,14140,,Bibliotecas Populares,,Córdoba,San Justo,Las Varillas,Biblioteca Popular Domingo Faustino Sarmiento,Bv.Sarmiento 170,,5940,3533,422451,bisar@lasvarinet.com.ar,,,-31.8663500,-62.7103330,Localización precisa,CONABIP,Comunitaria,1918,2018
14042060,14,14042,,Bibliotecas Populares,,Córdoba,General San Martin,La Laguna,Biblioteca Popular Esteban Echeverría,Gral.Paz s/n,,5905,353,4880317,s/d,,,-32.8033500,-63.2461500,Localización precisa,CONABIP,Comunitaria,1919,2018
06623070,06,06623,,Bibliotecas Populares,,Buenos Aires,Pergamino,El Socorro,Biblioteca Popular Melchor Echague,Adolfo Bulrich 844,,B2715AFD,2477,495234,bibmechague@multinetmo.com.ar,,,-33.6633170,-60.7080500,Localización precisa,CONABIP,Comunitaria,1933,2018
14182170,14,14182,,Bibliotecas Populares,,Córdoba,Union,Monte Maiz,Biblioteca Popular Mitre,Jujuy 1476,,2659,3468,472379,bibliommm@yahoo.com.ar,,,-33.2048500,-62.6020000,Localización precisa,CONABIP,Comunitaria,1917,2018
14098230,14,14098,,Bibliotecas Populares,,Córdoba,Rio Cuarto,Río Cuarto,Biblioteca Popular Domingo Faustino Sarmiento,Belisario Roldán 201,,5800,358,4663993,bibliosarmiento1915@yahoo.com.ar,,,-33.1327670,-64.3341500,Localización precisa,CONABIP,Comunitaria,1915,2018
74007070,74,74007,,Bibliotecas Populares,,San Luis,Ayacucho,San F.del Monte de Oro,Biblioteca Popular Juan de Dios Escobar,Belgrano 467,,5705,2651,426072,s/d,,,-32.5991780,-66.1322020,Localización precisa,CONABIP,Comunitaria,1910,2018
74035030,74,74035,,Bibliotecas Populares,,San Luis,General Pedernera,Justo P. Daract,Biblioteca Popular Domingo Faustino Sarmiento,Juan B.Justo 380,,5738,2657,480478,s/d,,,-33.8559330,-65.1924830,Localización precisa,CONABIP,Comunitaria,1914,2018
74035070,74,74035,,Bibliotecas Populares,,San Luis,General Pedernera,Villa Mercedes,Biblioteca Popular Municipal Juan Bautista Alberdi,Balcarce 561,,5730,s/d,s/d,s/d,,,-33.6824000,-65.4664000,Localización precisa,CONABIP,Comunitaria,1930,2018
74028010,74,74028,,Bibliotecas Populares,,San Luis,Chacabuco,Concarán,Biblioteca Popular Bernardino Rivadavia,Pringles,,5770,26566,480346,s/d,,,-32.5622670,-65.2448170,Localización precisa,CONABIP,Comunitaria,1916,2018
74049070,74,74049,,Bibliotecas Populares,,San Luis,Junin,Santa Rosa de Conlara,Biblioteca Popular Lafinur,Rivadavia 858,,5777,2656,492708,bibliopop@live.com,,,-32.3437330,-65.2045830,Localización precisa,CONABIP,Comunitaria,1915,2018
74014040,74,74014,,Bibliotecas Populares,,San Luis,Belgrano,Villa General Roca,Biblioteca Popular Los Manantiales,Escuela Prov.84,,5703,s/d,s/d,s/d,,,-32.6513710,-66.4673000,Localización precisa,CONABIP,Comunitaria,1916,2018
86077010,86,86077,,Bibliotecas Populares,,Santiago del Estero,General Taboada,Añatuya,Biblioteca Popular Almafuerte,Maipú y J.J.Paso,,3760,3844,421064,bibliotecaalmafuerteanatuya@hotmail.com,,,-28.4579830,-62.8336670,Localización precisa,CONABIP,Comunitaria,1919,2018
86028010,86,86028,,Bibliotecas Populares,,Santiago del Estero,Avellaneda,Colonia Dora,Biblioteca Popular Bartolomé Mitre,Buenos Aires s/n,,4332,3844,481037,bibliotecmitre@hotmail.com,,,-28.6020170,-62.9508830,Localización precisa,CONABIP,Comunitaria,1916,2018
86063040,86,86063,,Bibliotecas Populares,,Santiago del Estero,Choya,Frías,Biblioteca Popular Domingo Faustino Sarmiento,Rivadavia (Norte) 50,,C4230DLM,s/d,s/d,s/d,,,-28.6369000,-65.1302170,Localización precisa,CONABIP,Comunitaria,1908,2018
86035090,86,86035,,Bibliotecas Populares,,Santiago del Estero,Banda,La Banda,Biblioteca Popular Bernardino Rivadavia,Saenz Peña 72,,4300,385,4276219,s/d,,,-27.7332330,-64.2419670,Localización precisa,CONABIP,Comunitaria,1910,2018
86049110,86,86049,,Bibliotecas Populares,,Santiago del Estero,Capital,Santiago del Estero,Biblioteca Popular Domingo Faustino Sarmiento,Libertad 674,,4200,385,4212422,bibliotecasociedadsarmiento@hotmail.com,,,-27.7888670,-64.2626000,Localización precisa,CONABIP,Comunitaria,1893,2018
86035060,86,86035,,Bibliotecas Populares,,Santiago del Estero,Banda,Clodomira,Biblioteca Popular Mariano Moreno,República 545,,4338,385,4921524,s/d,,,-27.5685170,-64.1388670,Localización precisa,CONABIP,Comunitaria,1929,2018
90077010,90,90077,,Bibliotecas Populares,,Tucumán,Rio Chico,Aguilares,Biblioteca Popular Ricardo Rojas,J. B. Alberdi 1021,,T4152DUS,3865,482300,bibricardorojas@yahoo.com.ar,,,-27.4345330,-65.6161830,Localización precisa,CONABIP,Comunitaria,1911,2018
90021050,90,90021,,Bibliotecas Populares,,Tucumán,Chicligasta,Concepción,Biblioteca Popular Nicolás Avellaneda,San Martín 1650,,4146,3865,421611,s/d,,,-27.3450670,-65.5951500,Localización precisa,CONABIP,Comunitaria,1930,2018
90084010,90,90084,,Bibliotecas Populares,,Tucumán,Capital,Tucumán,Biblioteca Popular Osvaldo Bayer,Don Bosco 2955,,4000,s/d,s/d,s/d,,,-26.8167330,-65.2515160,Localización precisa,CONABIP,Comunitaria,2011,2018
90070030,90,90070,,Bibliotecas Populares,,Tucumán,Monteros,Monteros,Biblioteca Popular Bartolomé Mitre,Lamadrid 10/20,,4142,3863,426382,sociedadybibliotecamitre@yahoo.com.ar,,,-27.1653330,-65.4981670,Localización precisa,CONABIP,Comunitaria,2006,2018
90084010,90,90084,,Bibliotecas Populares,,Tucumán,Capital,San Miguel de Tucumán,Biblioteca Popular Alberdi,9 de Julio 162,,4000,381,4220429,bipopalberdi100@hotmail.com,,,-26.8333330,-65.2055330,Localización precisa,CONABIP,Comunitaria,1903,2018
90035020,90,90035,,Bibliotecas Populares,,Tucumán,Graneros,La Madrid,Biblioteca Popular La Madrid,25 de Mayo,,4176,s/d,s/d,s/d,,,-27.6482500,-65.2482830,Localización precisa,CONABIP,Comunitaria,1921,2018
90042010,90,90042,,Bibliotecas Populares,,Tucumán,Juan Bautista Alberdi,Juan Bautista Alberdi,Biblioteca Popular Belgrano,Av.Miguel M.Campero 277,,4158,3865,472458,bpbelgrano-villa-alberdi@yahoo.com.ar,,,-27.5851830,-65.6189170,Localización precisa,CONABIP,Comunitaria,1912,2018
90056090,90,90056,,Bibliotecas Populares,,Tucumán,Leales,Villa Leales,Biblioteca Popular Ernesto E. Padilla,Ernesto Padilla s/n,,4113,s/d,s/d,s/d,,,-27.2000010,-65.3000030,Localización precisa,CONABIP,Comunitaria,1926,2018
50021010,50,50021,,Bibliotecas Populares,,Mendoza,Godoy Cruz,Godoy Cruz,Biblioteca Popular Presbítero P. C. Arce,Sarmiento 1950,,5501,261,4525030,bibliopedroarce@hotmail.com,,,-32.9422500,-68.8231000,Localización precisa,CONABIP,Comunitaria,1914,2018
50105210,50,50105,,Bibliotecas Populares,,Mendoza,San Rafael,San Rafael,Biblioteca Popular Mariano Moreno,B. de Irigoyen 148,,5600,s/d,s/d,s/d,,,-34.6150000,-68.3278330,Localización precisa,CONABIP,Comunitaria,1919,2018
50014030,50,50014,,Bibliotecas Populares,,Mendoza,General Alvear,Colonia Alvear Oeste,Biblioteca Popular General C. M. de Alvear,Laprida 232,,5632,265,425311,bibliotecadeoeste@hotmail.com,,,-35.0047000,-67.6505500,Localización precisa,CONABIP,Comunitaria,1928,2018
50084140,50,50084,,Bibliotecas Populares,,Mendoza,Rivadavia,Rivadavia,Biblioteca Popular Bernardino Rivadavia,Av. España 56,,5577,2623,444900,bip692@hotmail.com,,,-33.1842000,-68.4667970,Localización precisa,CONABIP,Comunitaria,1915,2018
70028010,70,70028,,Bibliotecas Populares,,San Juan,Capital,San Juan,Biblioteca Popular Bartolomé Mitre,Mendoza (Norte) 931,,5400,264,4204469,bibliop_bmitre@yahoo.com.ar,,,-31.5224170,-68.5275500,Localización precisa,CONABIP,Comunitaria,1910,2018
70063040,70,70063,,Bibliotecas Populares,,San Juan,9 de Julio,Villa 9 de Julio,Biblioteca Popular Pedro Guerrero,Sarmiento,,5417,264,4977155,biblioteca3519@hotmail.com,,,-31.4910580,-68.5404430,Localización precisa,CONABIP,Comunitaria,1930,2018
70028010,70,70028,,Bibliotecas Populares,,San Juan,Capital,San Juan,Biblioteca Popular Sociedad Franklin,Laprida 63 (Este,,5400,264,4224998,bibliotecafranklin@speedy.com.ar,,,-31.5354330,-68.5250000,Localización precisa,CONABIP,Comunitaria,1866,2018
70098010,70,70098,,Bibliotecas Populares,,San Juan,Santa Lucia,Santa Lucía,Biblioteca Popular Rawson,Hipólito Yrigóyen (E) 2537,,5411,264,4254114,bibpoprawson@hotmail.com,,,-31.5578000,-68.4631330,Localización precisa,CONABIP,Comunitaria,1910,2018
06819010,06,06819,,Bibliotecas Populares,,Buenos Aires,Tornquist,Pelicura,Biblioteca Popular Juan F. Cornaccini,Sin dirección,,B8117XAJ,291,4535682,s/d,,,-38.1833310,-62.7000010,Localización precisa,CONABIP,Comunitaria,1953,2018
70035020,70,70035,,Bibliotecas Populares,,San Juan,Caucete,Caucete,Biblioteca Popular Colón,Diagonal Sarmiento 658,,5442,264,4961798,s/d,,,-31.6541170,-68.2792330,Localización precisa,CONABIP,Comunitaria,1918,2018
70119060,70,70119,,Bibliotecas Populares,,San Juan,Valle Fertil,Villa San Agustín,Biblioteca Popular Domingo Faustino Sarmiento,General Acha 1062,,5449,264,4503525,bibliovallefertil@hotmail.com,,,-30.6336120,-67.4663930,Localización precisa,CONABIP,Comunitaria,1872,2018
46042010,46,46042,,Bibliotecas Populares,,La Rioja,Chilecito,Chilecito,Biblioteca Popular Joaquín V. González,J. V. González 250,,5360,3825,422560,biblioteca026@arnetbiz.com.ar,,,-29.1597670,-67.5095830,Localización precisa,CONABIP,Comunitaria,1903,2018
46014010,46,46014,,Bibliotecas Populares,,La Rioja,Capital,La Rioja,Biblioteca Popular Mariano Moreno,9 de Julio 59,,5300,3822,427501,bibliotecamarianomoreno@gmail.com,,,-29.4140830,-66.8550330,Localización precisa,CONABIP,Comunitaria,1886,2018
46014010,46,46014,,Bibliotecas Populares,,La Rioja,Capital,La Rioja,Biblioteca Popular Juan Bautista Alberdi,Velez Sarfield 1000,,5300,3822,421975,s/d,,,-29.4164170,-66.8618330,Localización precisa,CONABIP,Comunitaria,1914,2018
46063040,46,46063,,Bibliotecas Populares,,La Rioja,General Belgrano,Olta,Biblioteca Popular Domingo Faustino Sarmiento,Castro Barros 300,,5383,3826,491140,s/d,,,-30.6313000,-66.2634170,Localización precisa,CONABIP,Comunitaria,1908,2018
46007010,46,46007,,Bibliotecas Populares,,La Rioja,Arauco,Aimogasta,Biblioteca Popular Pedro I. de Castro Barros,San Martín 450,,5310,s/d,s/d,s/d,,,-28.5539540,-66.8123210,Localización precisa,CONABIP,Comunitaria,1915,2018
46035010,46,46035,,Bibliotecas Populares,,La Rioja,Chamical,Chamical,Biblioteca Popular Mitre,Majul Ayan 129,,5380,3826,422436,bpbmitrechamical@yahoo.com.ar,,,-30.3590830,-66.3136500,Localización precisa,CONABIP,Comunitaria,1921,2018
46049070,46,46049,,Bibliotecas Populares,,La Rioja,Famatina,Famatina,Biblioteca Popular Pedro I. de Castro Barros,Av.J.Facundo Quiroga s/n,,5365,3825,493052,s/d,,,-28.9311830,-67.5177670,Localización precisa,CONABIP,Comunitaria,1914,2018
10021020,10,10021,,Bibliotecas Populares,,Catamarca,Andalgala,Andalgalá,Biblioteca Popular Domingo Faustino Sarmiento,San Martín y Perez Zurita,,4740,3835,422989,s/d,,,-27.5834670,-66.3163000,Localización precisa,CONABIP,Comunitaria,1872,2018
10042040,10,10042,,Bibliotecas Populares,,Catamarca,Capayan,Chumbicha,Biblioteca Popular Domingo Faustino Sarmiento,San Martín e Independencia,,4728,s/d,s/d,bibliochum@yahoo.com.ar,,,-28.8534130,-66.2360380,Localización precisa,CONABIP,Comunitaria,1930,2018
10042100,10,10042,,Bibliotecas Populares,,Catamarca,Capayan,Huillapima,Biblioteca Popular José M. Ramos Mejia,Lulo Corzo s/n,,4726,s/d,s/d,s/d,,,-28.7320000,-65.9838870,Localización precisa,CONABIP,Comunitaria,1912,2018
10091150,10,10091,,Bibliotecas Populares,,Catamarca,Santa Maria,Santa María,Biblioteca Popular Rafael Castillo,Mitre 499,,K4011AMI,3838,421142,bibliotecarafaelcastillo@yahoo.com.ar,,,-26.6937000,-66.0496670,Localización precisa,CONABIP,Comunitaria,1912,2018
10035020,10,10035,,Bibliotecas Populares,,Catamarca,Belen,Belén,Biblioteca Popular Obispo Esquiu,San Martín 218,,K4750BXF,3835,463023,biblioteca_esquiu@hotmail.com,,,-27.6615330,-67.0290000,Localización precisa,CONABIP,Comunitaria,1916,2018
66035020,66,66035,,Bibliotecas Populares,,Salta,Cerrillos,La Merced,Biblioteca Popular Francisco Alsina,Hipólito Yrigoyen 825,,s/d,s/d,s/d,s/d,,,-24.9672670,-65.4896670,Localización precisa,CONABIP,Comunitaria,1910,2018
66140050,66,66140,,Bibliotecas Populares,,Salta,Rosario de la Frontera,Rosario de la Frontera,Biblioteca Popular Domingo Faustino Sarmiento,Melchora F.de Cornejo 521,,4190,s/d,s/d,dofasar2004@yahoo.com.ar,,,-25.7989000,-64.9732330,Localización precisa,CONABIP,Comunitaria,1874,2018
66028050,66,66028,,Bibliotecas Populares,,Salta,Capital,Salta,Biblioteca Popular General Mitre,Av.Sarmiento 277,,A4400ERC,387,4211223,bibliotecapopularmitre@sinectis.com.ar,,,-24.7859830,-65.4161170,Localización precisa,CONABIP,Comunitaria,1917,2018
66028060,66,66028,,Bibliotecas Populares,,Salta,Capital,San Lorenzo,Biblioteca Popular Tata Sarapura,Juan Carlos Dávalos 1000,,A4401XAK,387,4921596,bptsarapura@hotmail.es,,,-24.7275670,-65.4981670,Localización precisa,CONABIP,Comunitaria,1997,2018
66147030,66,66147,,Bibliotecas Populares,,Salta,Rosario de Lerma,Rosario de Lerma,Biblioteca Popular Domingo Faustino Sarmiento,9 de Julio 413,,4405,s/d,s/d,bibsarmiento1915@hotmail.com,,,-24.9848170,-65.5801670,Localización precisa,CONABIP,Comunitaria,1915,2018
38014040,38,38014,,Bibliotecas Populares,,Jujuy,El Carmen,El Carmen,Biblioteca Popular Domingo T. Pérez,Sarmiento 334,,4603,388,4933194,s/d,,,-24.3900830,-65.2617330,Localización precisa,CONABIP,Comunitaria,1905,2018
38021060,38,38021,,Bibliotecas Populares,,Jujuy,Dr. Manuel Belgrano,San Salvador de Jujuy,Biblioteca Popular de Jujuy,Belgrano 652,,Y4600ABL,388,4222561,bibliopopjuj@imagine.com.ar,,,-24.1853670,-65.3021330,Localización precisa,CONABIP,Comunitaria,1899,2018
38028040,38,38028,,Bibliotecas Populares,,Jujuy,Humahuaca,Humahuaca,Biblioteca Popular General Bartolomé Mitre,Entre Ríos 317,,4630,s/d,s/d,bib.mitre@yahoo.com.ar,,,-23.2057670,-65.3484170,Localización precisa,CONABIP,Comunitaria,1906,2018
38007060,38,38007,,Bibliotecas Populares,,Jujuy,Cochinoca,Puesto del Marques,Biblioteca Popular Rosario Tolaba,Campaña del desierto,,4644,3887,491088,bibliopop_carnerillo@hotmail.com.ar,,,-22.5374830,-65.6977830,Localización precisa,CONABIP,Comunitaria,1997,2018
38007010,38,38007,,Bibliotecas Populares,,Jujuy,Cochinoca,Barrancas Abdón Castro Tolay,Biblioteca Popular Crear y Ser,Senador Martiarenas s/n,,4641,3887,491144,bpcrearyser@hotmail.com,,,-23.3425170,-66.0904670,Localización precisa,CONABIP,Comunitaria,2000,2018
38112080,38,38112,,Bibliotecas Populares,,Jujuy,Yavi,Yavi,Biblioteca Popular Bernardino Rivadavia,Reconquista,,Y4651AKA,3887,491138,s/d,,,-22.1302670,-65.4618330,Localización precisa,CONABIP,Comunitaria,1911,2018
38112050,38,38112,,Bibliotecas Populares,,Jujuy,Yavi,La Quiaca,Biblioteca Popular Domingo Faustino Sarmiento,Rivadavia 288,,4650,388,4135378,s/d,,,-22.1040330,-65.5934830,Localización precisa,CONABIP,Comunitaria,1915,2018
22140060,22,22140,,Bibliotecas Populares,,Chaco,San Fernando,Resistencia,Biblioteca Popular Bernardino Rivadavia,C. Pellegrini 80,,H3500CDB,3722,420930,biblioteca-rivadavia@arnet.com.ar,,,-27.4520330,-58.9840500,Localización precisa,CONABIP,Comunitaria,1909,2018
22140060,22,22140,,Bibliotecas Populares,,Chaco,San Fernando,Resistencia,Biblioteca Escolar Popular Benjamín Zorrilla,Sta.María de Oro 28,,3500,3722,420889,bibliozorrilla@hotmail.com,,,-27.4506500,-58.9876170,Localización precisa,CONABIP,Comunitaria,1901,2018
22140010,22,22140,,Bibliotecas Populares,,Chaco,San Fernando,Barranqueras,Biblioteca Pública Popular Mariano Moreno,Laprida 5600,,3503,3722,485052,bibliommoreno@hotmail.com,,,-27.4860400,-58.9327580,Localización precisa,CONABIP,Comunitaria,1930,2018
34014020,34,34014,,Bibliotecas Populares,,Formosa,Formosa,Formosa,Biblioteca Popular Dr. M. Ruiz Moreno,J. M. Uriburu 241,,3600,3717,425589,bpruizmoreno@hotmail.com,,,-26.1840000,-58.1661670,Localización precisa,CONABIP,Comunitaria,1910,2018
54035020,54,54035,,Bibliotecas Populares,,Misiones,Concepcion,Concepción de la Sierra,Asociación Civil Biblioteca Popular Bartolome Mitre,Bartolomé Mitre 385,,3355,3758,470177,bmemitre_biblio_concep@hotmail.com,,,-27.9838330,-55.5207000,Localización precisa,CONABIP,Comunitaria,1911,2018
54028030,54,54028,,Bibliotecas Populares,,Misiones,Capital,Posadas,Biblioteca Popular Posadas,Córdoba 218,,3300,3752,429365,bibposadas@arnet.com.ar,,,-27.3685670,-55.8876670,Localización precisa,CONABIP,Comunitaria,1913,2018
54021080,54,54021,,Bibliotecas Populares,,Misiones,Candelaria,Santa Ana,Biblioteca Popular Sarmiento,Av. M. Belgrano 450,,N3316ASA,3752,497165,bibliopop@hotmail.com,,,-27.3707670,-55.5820170,Localización precisa,CONABIP,Comunitaria,1979,2018
54098110,54,54098,,Bibliotecas Populares,,Misiones,San Ignacio,San Ignacio,Biblioteca Popular Municipal Patricias argentinas,Irigoyen 569,,3322,3752,470431,s/d,,,-27.2593830,-55.5388670,Localización precisa,CONABIP,Comunitaria,1910,2018
42133040,42,42133,,Bibliotecas Populares,,La Pampa,Realico,Embajador Martini,Biblioteca Popular Florentino Ameghino,Calle 2 Nº  516,,6203,2302,521254,bibmartini@hotmail.com,,,-35.3857670,-64.2826330,Localización precisa,CONABIP,Comunitaria,1919,2018
42070030,42,42070,,Bibliotecas Populares,,La Pampa,Guatrache,Guatrache,Biblioteca Popular Florentino Ameghino,Sarmiento 250,,6311,2924,492116,sonirack77@yahoo.com.ar,,,-37.6697830,-63.5315670,Localización precisa,CONABIP,Comunitaria,1921,2018
42105030,42,42105,,Bibliotecas Populares,,La Pampa,Maraco,General Pico,Biblioteca Popular Municipal José Manuel Estrada,Calle 17 580,,6360,2302,436454,bibliotecaestrada@ciudad.com.ar,,,-35.6636000,-63.7565000,Localización precisa,CONABIP,Comunitaria,1912,2018
42133080,42,42133,,Bibliotecas Populares,,La Pampa,Realico,Realicó,Biblioteca Popular Presidente Avellaneda,Sarmiento 1551,,6200,2331,462997,bibliotecarealico@cernet.com.ar,,,-35.0388170,-64.2461170,Localización precisa,CONABIP,Comunitaria,1910,2018
42098050,42,42098,,Bibliotecas Populares,,La Pampa,Loventue,Victorica,Biblioteca Popular Bartolomé Mitre,Calle 17 Nº 861,,6319,2338,432379,bibliorica@yahoo.com.ar,,,-36.2175670,-65.4366170,Localización precisa,CONABIP,Comunitaria,1905,2018
42119060,42,42119,,Bibliotecas Populares,,La Pampa,Quemu Quemu,Villa Mirasol,Biblioteca Popular Raúl Belisario Díaz,Av.San Martín 871,,6315,2333,493031,bibmiras@baronsatelital.com.ar,,,-36.0748500,-63.8866500,Localización precisa,CONABIP,Comunitaria,1911,2018
42035020,42,42035,,Bibliotecas Populares,,La Pampa,Conhelo,Eduardo Castex,Biblioteca Popular San Martín,España 954,,6380,2334,453302,bibliosm@cospec.com.ar,,,-35.9141500,-64.2974000,Localización precisa,CONABIP,Comunitaria,1932,2018
42126060,42,42126,,Bibliotecas Populares,,La Pampa,Rancul,Quetrequen,Biblioteca Popular Bernardino Rivadavia,Conquista del desierto s/n,,L6212XAB,2331,493034,biblioquetre@cernet.com.ar,,,-35.0564670,-64.5238170,Localización precisa,CONABIP,Comunitaria,1915,2018
58042010,58,58042,,Bibliotecas Populares,,Neuquén,Chos Malal,Chos Malal,Biblioteca Popular Coronel J. M. Olascoaga,25 de Mayo y Río Gardin,,8353,2948,422576,bibliotecaolascoaga_chosmalal@yahoo.com.ar,,,-37.3798670,-70.2712000,Localización precisa,CONABIP,Comunitaria,1930,2018
58056010,58,58056,,Bibliotecas Populares,,Neuquén,Lacar,San Martín de los Andes,Biblioteca Popular 9 de Julio,T. G. Roca 1223,,8370,2972,429149,bp9jul@smandes.com.ar,,,-40.1541000,-71.3460670,Localización precisa,CONABIP,Comunitaria,1917,2018
58112040,58,58112,,Bibliotecas Populares,,Neuquén,Zapala,Zapala,Biblioteca Popular Elordi,Doctora de la Vega 487,,8340,2942,430821,bibliotecaelordi@infovia.com.ar,,,-38.9069000,-70.0662500,Localización precisa,CONABIP,Comunitaria,1916,2018
62028020,62,62028,,Bibliotecas Populares,,Río Negro,Conesa,General Conesa,Biblioteca Popular General Conesa,Julio A.Roca 368,,R8503BHH,2931,498717,biblioteca@conesanet.com.ar,,,-40.1041000,-64.4497830,Localización precisa,CONABIP,Comunitaria,1905,2018
62007090,62,62007,,Bibliotecas Populares,,Río Negro,Adolfo Alsina,Viedma,Biblioteca Popular Bartolomé Mitre,Colón 498,,R8500FDJ,2920,427786,bpbmitrern@argentina.com,,,-40.8103670,-62.9925330,Localización precisa,CONABIP,Comunitaria,1906,2018
62014040,62,62014,,Bibliotecas Populares,,Río Negro,Avellaneda,Choele Choel,Biblioteca Popular Nicolás Avellaneda,Nicolás Palacios 365,,R8360DNG,2946,442803,bibliotecachoelechoel@yahoo.com.ar,,,-39.2907830,-65.6602330,Localización precisa,CONABIP,Comunitaria,1918,2018
82028040,82,82028,,Bibliotecas Populares,,Santa Fe,Constitucion,Bombal,Biblioteca Popular Bartolomé Mitre,Sarmiento 389,,2179,3465,497740,bibliotecabombal@bombal.net.ar,,,-33.4593000,-61.3207330,Localización precisa,CONABIP,Comunitaria,1921,2018
06840010,06,06840,,Bibliotecas Populares,,Buenos Aires,Tres de Febrero,Saenz Peña,Asociación Cultural y Biblioteca Popular Mariano Moreno,Springolo 680,,1674,11,47129846,bpmoreno@hotmail.com,,,-34.6007170,-58.5299000,Localización precisa,CONABIP,Comunitaria,1920,2018
06252010,06,06252,,Bibliotecas Populares,,Buenos Aires,Escobar,Garín,Biblioteca Popular Juan Bautista Alberdi,Presidente Perón 225,,1619,3488,473359,alberdibiblio@yahoo.com.ar,,,-34.4206500,-58.7331830,Localización precisa,CONABIP,Comunitaria,1929,2018
10084070,10,10084,,Bibliotecas Populares,,Catamarca,Poman,Pomán,Biblioteca Popular Carlos Guido Spano,Gerónimo Luis de Cabrera s/n,,5315,3835,497255,s/d,,,-28.3940170,-66.2210670,Localización precisa,CONABIP,Comunitaria,1918,2018
14119210,14,14119,,Bibliotecas Populares,,Córdoba,Rio Segundo,Villa del Rosario,Biblioteca Popular Villa del Rosario,Salta 770,,5963,s/d,s/d,s/d,,,-31.5585000,-63.5367670,Localización precisa,CONABIP,Comunitaria,1930,2018
14182060,14,14182,,Bibliotecas Populares,,Córdoba,Union,Bell Ville,Biblioteca Popular 20 de Septiembre,San Martín 64,,2550,3534,425422,sociedaditalianabv@arnet.com.ar,,,-32.6307830,-62.6926830,Localización precisa,CONABIP,Comunitaria,1916,2018
14014010,14,14014,,Bibliotecas Populares,,Córdoba,Capital,Córdoba,Biblioteca Popular Alberdi,9 de Julio 2701,,5003,s/d,s/d,biblialberdi@yahoo.com.ar,,,-31.4044500,-64.2176500,Localización precisa,CONABIP,Comunitaria,1911,2018
14161150,14,14161,,Bibliotecas Populares,,Córdoba,Tercero Arriba,Río Tercero,Biblioteca Popular Justo José de Urquíza,Alberdi 75,,X5850EVA,3571,412148,biblior3@riotel.com.ar,,,-32.1729000,-64.1108670,Localización precisa,CONABIP,Comunitaria,1919,2018
82126160,82,82126,,Bibliotecas Populares,,Santa Fe,San Martin,Sastre,Biblioteca Popular General José de San Martín,9 de Julio 1729,,S2440ABK,3406,480260,bipsm@sme.com.ar,,,-31.7685500,-61.8283670,Localización precisa,CONABIP,Comunitaria,1919,2018
42077030,42,42077,,Bibliotecas Populares,,La Pampa,Hucal,General San Martín,Biblioteca Popular Aristóbulo del Valle,Gob.Virasoro 231 Casilla 7,,8206,2925,497720,biblioteca_adelvalle@hotmail.com,,,-37.9793500,-63.6032000,Localización precisa,CONABIP,Comunitaria,1923,2018
30098010,30,30098,,Bibliotecas Populares,,Entre Ríos,Uruguay,Basavilbaso,Biblioteca Popular Luz obrera,Podesta 982,,E3170CDF,3445,482383,bluzobrera1919@yahoo.com.ar.,,,-32.3743000,-58.8779000,Localización precisa,CONABIP,Comunitaria,1919,2018
42140020,42,42140,,Bibliotecas Populares,,La Pampa,Toay,Toay,Biblioteca Popular Toay,13 de Caballería y Balcarce 1102,,6303,2954,492865,bibliotecatoay@cpenet.com.ar,,,-36.6681330,-64.3834670,Localización precisa,CONABIP,Comunitaria,1921,2018
06638040,06,06638,,Bibliotecas Populares,,Buenos Aires,Pilar,Pilar,Biblioteca Popular Bartolomé Mitre,Belgrano 553,,1629,2322,431818,bibliotecapilar@yahoo.com.ar,,,-34.4576500,-58.9140330,Localización precisa,CONABIP,Comunitaria,1922,2018
42154040,42,42154,,Bibliotecas Populares,,La Pampa,Utracan,General Acha,Biblioteca Popular Florentino Ameghino,Avellaneda 450,,8200,2952,432185,biflora.me@hotmail.com,,,-37.3776670,-64.6029830,Localización precisa,CONABIP,Comunitaria,1922,2018
82105030,82,82105,,Bibliotecas Populares,,Santa Fe,San Jeronimo,Barrancas,Biblioteca Popular de Barrancas,Alem 714,,S2246BAL,3466,420308,bibliopo@cosmol.com.ar,,,-32.2335830,-60.9830330,Localización precisa,CONABIP,Comunitaria,1922,2018
90014090,90,90014,,Bibliotecas Populares,,Tucumán,Cruz Alta,Las Cejas,Biblioteca Popular Marco M. Avellaneda,Sarmiento,,4186,s/d,s/d,s/d,,,-26.8900000,-64.7408670,Localización precisa,CONABIP,Comunitaria,1920,2018
06035010,06,06035,,Bibliotecas Populares,,Buenos Aires,Avellaneda,Wilde,Biblioteca Popular Juan M. de Pueyrredón,Martín Fierro 250,,1875,s/d,s/d,eho_1966@yahoo.com.ar,,,-34.7007170,-58.3160500,Localización precisa,CONABIP,Comunitaria,1922,2018
06791050,06,06791,,Bibliotecas Populares,,Buenos Aires,Tandil,Iraola,Biblioteca Popular Escolar Juan José Castelli,Estación Iraola s/n,,7009,s/d,s/d,s/d,,,-37.2518880,-58.9169310,Localización precisa,CONABIP,Comunitaria,1979,2018
06882050,06,06882,,Bibliotecas Populares,,Buenos Aires,Zarate,Zárate,Biblioteca Popular Domingo Faustino Sarmiento,Justa Lima de Atucha 667,,2800,3487,422696,cpcultura@hotmail.com,,,-34.1007830,-59.0210330,Localización precisa,CONABIP,Comunitaria,1922,2018
42133030,42,42133,,Bibliotecas Populares,,La Pampa,Realico,Maisonnave,Biblioteca Popular Domingo Faustino Sarmiento,Uruguay,,L6211AAA,2331,491007,bibliomaisonnave@cernet.com.ar,,,-35.0408500,-64.3851330,Localización precisa,CONABIP,Comunitaria,1920,2018
82112050,82,82112,,Bibliotecas Populares,,Santa Fe,San Justo,Gobernador Crespo,Biblioteca Popular Estanislao Zeballos,Estanislao Zeballos 165,,3044,3498,480892,bibliotecaezeballos@hotmail.com,,,-30.3595830,-60.4032830,Localización precisa,CONABIP,Comunitaria,1922,2018
14140280,14,14140,,Bibliotecas Populares,,Córdoba,San Justo,Marull,Biblioteca Popular Carlos Guido Spano,Belgrano 234,,5139,3563,492282,gmistral@redcoop.com.ar,,,-30.9962170,-62.8271830,Localización precisa,CONABIP,Comunitaria,1922,2018
82021430,82,82021,,Bibliotecas Populares,,Santa Fe,Castellanos,Zenón Pereyra,Biblioteca Popular Rodolfo Prigioni,R.B.Prigioni 578,,2409,3564,492211,rprigioni@zenonpereyra.net.ar,,,-31.5614170,-61.8977500,Localización precisa,CONABIP,Comunitaria,1922,2018
06854100,06,06854,,Bibliotecas Populares,,Buenos Aires,25 de Mayo,25 de Mayo,Comité Cultural y Biblioteca Juan Francisco Ibarra,9 y 27 801,,6660,2345,462234,bibliotecaibarra@yahoo.com.ar,,,-35.4329170,-60.1714170,Localización precisa,CONABIP,Comunitaria,1922,2018
82014030,82,82014,,Bibliotecas Populares,,Santa Fe,Caseros,Berabevú,Biblioteca Popular El Ateneo,Güemes 181,,2639,3469,494518,bibelateneo@futurnet.com.ar,,,-33.3397170,-61.8642330,Localización precisa,CONABIP,Comunitaria,1953,2018
18133020,18,18133,,Bibliotecas Populares,,Corrientes,San Cosme,Paso de la Patria,Biblioteca Popular Pública Municipal General Bartolomé Mitre,25 de Mayo 518,,3409,3783,494510,s/d,,,-27.3159670,-58.5768670,Localización precisa,CONABIP,Comunitaria,1920,2018
82070100,82,82070,,Bibliotecas Populares,,Santa Fe,Las Colonias,Humboldt,Biblioteca Popular Beck Herzog,Av.San Martín 1638,,S3081ARN,3496,480417,bibliohumboldt@arnet.com.ar,,,-31.3999830,-61.0819330,Localización precisa,CONABIP,Comunitaria,1922,2018
02000010,02,02000,,Bibliotecas Populares,,Ciudad Autónoma de Buenos Aires,Ciudad Autonoma de Buenos Aires,Ciudad de Buenos Aires,Biblioteca Popular Ciencia y labor,Gral.César Díaz 2453,,1416,11,45829779,s/d,,,-34.6114270,-58.4733770,Localización precisa,CONABIP,Comunitaria,1918,2018
06805010,06,06805,,Bibliotecas Populares,,Buenos Aires,Tigre,Tigre,Biblioteca Popular Domingo Faustino Sarmiento,Av. Lib. Gral.San Martín 440,,1648,11,47491973,info@bpstigre.com.ar,,,-34.4202330,-58.5845830,Localización precisa,CONABIP,Comunitaria,1916,2018
06819040,06,06819,,Bibliotecas Populares,,Buenos Aires,Tornquist,Tornquist,Biblioteca Popular Ernesto Tornquist,Av.E.Tornquist 355,,8160,291,4940075,bibliotecatornquist@yahoo.com.ar,,,-38.1015500,-62.2247000,Localización precisa,CONABIP,Comunitaria,1917,2018
62014060,62,62014,,Bibliotecas Populares,,Río Negro,Avellaneda,Darwin,Biblioteca Popular El arte es realidad,Av.Roca s/n,,8364,2946,493501,elarteesrealidad@yahoo.com.ar,,,-39.2024330,-65.7391330,Localización precisa,CONABIP,Comunitaria,1930,2018
18168020,18,18168,,Bibliotecas Populares,,Corrientes,Santo Tome,Garruchos,Biblioteca Popular Mariano Moreno,Malvinas Argentinas s/n,,3351,s/d,s/d,s/d,,,-28.1734330,-55.6509830,Localización precisa,CONABIP,Comunitaria,1911,2018
82056140,82,82056,,Bibliotecas Populares,,Santa Fe,Iriondo,Totoras,Biblioteca Popular Domingo Faustino Sarmiento,San Lorenzo y Moreno,,2144,3476,460257,bibliotecasarmiento@vaynet.com.ar,,,-32.5843670,-61.1690670,Localización precisa,CONABIP,Comunitaria,1920,2018
82084270,82,82084,,Bibliotecas Populares,,Santa Fe,Rosario,Rosario,Biblioteca Popular Amor al estudio,Junin 1680,,2000,341,4393937,bibliotecaamoralestudio@hotmail.com,,,-32.9268500,-60.6873330,Localización precisa,CONABIP,Comunitaria,1922,2018
82021010,82,82021,,Bibliotecas Populares,,Santa Fe,Castellanos,Colonia Aldao,Biblioteca Popular Domingo Faustino Sarmiento,Av.D.F.Sarmiento 140,,2317,3493,497276,biblioteca0472@interclass.com.ar,,,-30.9829170,-61.7436500,Localización precisa,CONABIP,Comunitaria,1919,2018
74035070,74,74035,,Bibliotecas Populares,,San Luis,General Pedernera,Villa Mercedes,Biblioteca Popular Dr. Juan Llerena,Rafael Cortez 111,,5730,2657,424460,bibliojuanllerena@yahoo.com.ar,,,-33.6824330,-65.4628830,Localización precisa,CONABIP,Comunitaria,1937,2018
82112130,82,82112,,Bibliotecas Populares,,Santa Fe,San Justo,San Justo,Biblioteca Popular Mariano Moreno,Gral. Urquiza 2441,,S3040EGI,3498,426283,biblioteca@sanjustosf.com.ar,,,-30.7896670,-60.5896000,Localización precisa,CONABIP,Comunitaria,1919,2018
22140040,22,22140,,Bibliotecas Populares,,Chaco,San Fernando,Fontana,Biblioteca Pública Popular Bartolomé E. Pisarello,Lapacho 382,,3514,3722,461183,bipisarello@yahoo.com,,,-27.4163800,-59.0322910,Localización precisa,CONABIP,Comunitaria,1923,2018
06778020,06,06778,,Bibliotecas Populares,,Buenos Aires,San Vicente,Alejandro Korn,Biblioteca Popular Domingo Faustino Sarmiento,Independencia 16,,1864,2225,421000,s/d,,,-34.9745330,-58.3832170,Localización precisa,CONABIP,Comunitaria,1923,2018
78021040,78,78021,,Bibliotecas Populares,,Santa Cruz,Guer Aike,Río Gallegos,Biblioteca Popular Pública Juan Hilarion Lenzi,San Martín 1200,,9400,2966,426548,bibliosantacruz@infovia.com.ar,,,-51.6268670,-69.2212830,Localización precisa,CONABIP,Comunitaria,1959,2018
06140010,06,06140,,Bibliotecas Populares,,Buenos Aires,Capitan Sarmiento,Capitán Sarmiento,Biblioteca Popular Almafuerte,Av.Pte.Perón 467,,2752,2478,482271,bpalmafuerte@hotmail.com,,,-34.1775000,-59.7907000,Localización precisa,CONABIP,Comunitaria,1923,2018
86049110,86,86049,,Bibliotecas Populares,,Santiago del Estero,Capital,Santiago del Estero,Biblioteca Popular Gobernador Eduardo Miguel,Balcarce 500,,4200,s/d,s/d,s/d,,,-27.7983000,-64.2459330,Localización precisa,CONABIP,Comunitaria,1930,2018
82049180,82,82049,,Bibliotecas Populares,,Santa Fe,General Obligado,Reconquista,Biblioteca Popular Municipal General Obligado,9 de Julio 750,,3560,3482,425029,bibliogo@trcnet.com.ar,,,-29.1446330,-59.6474170,Localización precisa,CONABIP,Comunitaria,1921,2018
82063170,82,82063,,Bibliotecas Populares,,Santa Fe,La Capital,Santa Fe,Biblioteca Popular Ped. Domingo Faustino Sarmiento,San Martín 2839,,3000,342,4572974,bibpop@ceride.gov.ar,,,-31.6429000,-60.7055830,Localización precisa,CONABIP,Comunitaria,1915,2018
06861010,06,06861,,Bibliotecas Populares,,Buenos Aires,Vicente Lopez,Olivos,Biblioteca Popular Vicente López y Planes,Av.Maipú 2901,,1636,11,47947655,bibliotecaolivos@yahoo.com.ar,,,-34.5094000,-58.4915500,Localización precisa,CONABIP,Comunitaria,1921,2018
10077050,10,10077,,Bibliotecas Populares,,Catamarca,Paclin,La Merced,Biblioteca Popular Rafael Castillo,Ejército del Norte s/n,,4718,s/d,s/d,s/d,,,-28.1521170,-65.6591670,Localización precisa,CONABIP,Comunitaria,1921,2018
06063010,06,06063,,Bibliotecas Populares,,Buenos Aires,Balcarce,Balcarce,Biblioteca Pública Pablo A. Pizzurno,Calle 15,,B7620BDO,2266,430191,s/d,,,-37.8456830,-58.2543500,Localización precisa,CONABIP,Comunitaria,1923,2018
82042310,82,82042,,Bibliotecas Populares,,Santa Fe,General Lopez,Wheelwright,Biblioteca Popular Manuel Lainez,Urquiza 346,,S2722BUF,2473,480148,blainez@wiscom.com.ar,,,-33.7912170,-61.2122500,Localización precisa,CONABIP,Comunitaria,1924,2018
06840010,06,06840,,Bibliotecas Populares,,Buenos Aires,Tres de Febrero,Caseros,Biblioteca Popular Bartolomé Mitre,Av.Mitre 4752,,1678,11,47506343,bibliotecamitrecaseros@arnet.com.ar,,,-34.6100830,-58.5631670,Localización precisa,CONABIP,Comunitaria,1921,2018
82014120,82,82014,,Bibliotecas Populares,,Santa Fe,Caseros,San José de la Esquina,Biblioteca Popular Domingo Faustino Sarmiento,Castellanos 775,,S2185ZAA,3467,460314,biblioteca-sanjose@gobbt.com.ar,,,-33.1125330,-61.7013330,Localización precisa,CONABIP,Comunitaria,1914,2018
82091180,82,82091,,Bibliotecas Populares,,Santa Fe,San Cristobal,Moisés Ville,Biblioteca Popular Domingo G. Silva,Bartolomé Mitre 424,,2313,3409,420061,bibliotecasilva_mville@hotmail.com,,,-30.7124500,-61.4685000,Localización precisa,CONABIP,Comunitaria,1924,2018
82119030,82,82119,,Bibliotecas Populares,,Santa Fe,San Lorenzo,Carcarañá,Biblioteca Popular Pablo A. Pizzurno,Meyer y Av.La Plata,,2138,341,4941533,c3biblpizzurno1@yahoo.com.ar,,,-32.8599830,-61.1477170,Localización precisa,CONABIP,Comunitaria,1924,2018
10035110,10,10035,,Bibliotecas Populares,,Catamarca,Belen,Londres,Biblioteca Popular Manuel Lainez,J.Perez de Zurita s/n,,4753,3835,491102,s/d,,,-27.7130330,-67.1423670,Localización precisa,CONABIP,Comunitaria,1924,2018
10105110,10,10105,,Bibliotecas Populares,,Catamarca,Tinogasta,Fiambala,Biblioteca Popular Dr. A. del Pino,Reverendo Padre Arnaldo Azzarelli s/n,,5345,3837,496208,biblioteca-delpino@hotmail.com,,,-27.6924170,-67.6194830,Localización precisa,CONABIP,Comunitaria,1924,2018
06413050,06,06413,,Bibliotecas Populares,,Buenos Aires,Junin,Junín,Biblioteca Popular Paz y trabajo,Primera Junta 301,,6000,362,20625,s/d,,,-34.5826170,-60.9359670,Localización precisa,CONABIP,Comunitaria,1923,2018
06014010,06,06014,,Bibliotecas Populares,,Buenos Aires,Adolfo Gonzales Chaves,Adolfo Gonzalez Chaves,Sociedad Biblioteca Pública Bernardino Rivadavia,Sarmiento 175,,7513,2983,484115,bipobrchaves@yahoo.com.ar,,,-38.0346500,-60.0994330,Localización precisa,CONABIP,Comunitaria,1925,2018
82084270,82,82084,,Bibliotecas Populares,,Santa Fe,Rosario,Rosario,Biblioteca Popular Libertad,Juan José Paso 2309,,2000,341,4357922,s/d,,,-32.9194500,-60.6871330,Localización precisa,CONABIP,Comunitaria,1922,2018
18021020,18,18021,,Bibliotecas Populares,,Corrientes,Capital,Corrientes,Biblioteca Popular Bartolomé Mitre,25 de Mayo 1406,,3400,3783,437739,bibliotecamitre@argentina.com,,,-27.4646330,-58.8324830,Localización precisa,CONABIP,Comunitaria,1925,2018
14091070,14,14091,,Bibliotecas Populares,,Córdoba,Punilla,Cosquín,Biblioteca Popular Nicolás Avellaneda,Geronico 848,,5166,3541,452430,bibnacos@ciudad.com.ar,,,-31.2407000,-64.4670500,Localización precisa,CONABIP,Comunitaria,1923,2018
18021020,18,18021,,Bibliotecas Populares,,Corrientes,Capital,Corrientes,Biblioteca Popular Joséfina Conte,Carlos Pellegrini 702,,3400,3783,429422,bpjcontte1078@yahoo.com.ar,,,-27.4649500,-58.8413670,Localización precisa,CONABIP,Comunitaria,1923,2018
86049110,86,86049,,Bibliotecas Populares,,Santiago del Estero,Capital,Santiago del Estero,Biblioteca Popular Juan Bautista Alberdi,Arenales 450,,4200,11,4241241,bpjuanbautistaalberdi@hotmail.es,,,-27.7767170,-64.2667330,Localización precisa,CONABIP,Comunitaria,1925,2018
82063080,82,82063,,Bibliotecas Populares,,Santa Fe,La Capital,Laguna Paiva,Biblioteca Popular Juan Bautista Alberdi,Alberdi 1150,,3020,342,4940657,bibalberdilp@hotmail.com,,,-31.3066170,-60.6599670,Localización precisa,CONABIP,Comunitaria,1925,2018
82084270,82,82084,,Bibliotecas Populares,,Santa Fe,Rosario,Rosario,Biblioteca Popular Pública Aristóbulo del Valle,Pasaje Zinni 5349,,2000,341,4661911,s/d,,,-32.9987170,-60.6284670,Localización precisa,CONABIP,Comunitaria,1925,2018
02000010,02,02000,,Bibliotecas Populares,,Ciudad Autónoma de Buenos Aires,Ciudad Autonoma de Buenos Aires,Ciudad de Buenos Aires,Biblioteca Popular Joaquín V. González,Tte.G.Perón 1242,,1038,11,3822585,s/d,,,-34.6062930,-58.3841440,Localización precisa,CONABIP,Comunitaria,1925,2018
82042060,82,82042,,Bibliotecas Populares,,Santa Fe,General Lopez,Carreras,Biblioteca Popular Guido y Spano,Galvez 565,,2729,3465,490099,guidospano@dat1.net.ar,,,-33.5993500,-61.3076000,Localización precisa,CONABIP,Comunitaria,1925,2018
82126010,82,82126,,Bibliotecas Populares,,Santa Fe,San Martin,Cañada Rosquín,Biblioteca Popular Juan Bautista Alberdi,Mariano Moreno 515,,S2454AUK,3401,470933,bibliotecacdarosquin@velosat.com.ar,,,-32.0550330,-61.6036500,Localización precisa,CONABIP,Comunitaria,1924,2018
02000010,02,02000,,Bibliotecas Populares,,Ciudad Autónoma de Buenos Aires,Ciudad Autonoma de Buenos Aires,Ciudad de Buenos Aires,Biblioteca Popular William C.Morris,Güemes 4621/01,,1425,11,47736747,bibliomorris@yahoo.com.ar,,,-34.5813640,-58.4239080,Localización precisa,CONABIP,Comunitaria,1907,2018
82112080,82,82112,,Bibliotecas Populares,,Santa Fe,San Justo,Marcelino Escalada,Biblioteca Popular Florentino Ameghino,Maipú s/n,,S3042AQK,3498,493008,florameg@sanjusto.com.ar,,,-30.5792830,-60.4665330,Localización precisa,CONABIP,Comunitaria,1922,2018
82014050,82,82014,,Bibliotecas Populares,,Santa Fe,Caseros,Casilda,Biblioteca Popular Domingo Faustino Sarmiento,Dante Alighieri 2385,,2170,3464,425078,bcapop@knett.com.ar,,,-33.0478000,-61.1675330,Localización precisa,CONABIP,Comunitaria,1917,2018
82070070,82,82070,,Bibliotecas Populares,,Santa Fe,Las Colonias,Franck,Biblioteca Popular Mariano Moreno,Rivadavia 2062,,3009,342,4930243,bibliopopular@hotmail.com,,,-31.5871830,-60.9378170,Localización precisa,CONABIP,Comunitaria,1926,2018
82056030,82,82056,,Bibliotecas Populares,,Santa Fe,Iriondo,Cañada de Gómez,Biblioteca Popular Infantil Pablo A. Pizzurno,Irigoyen 272,,S2500AZO,3471,426105,pizzurno@mcg.org.ar,,,-32.8182500,-61.3942500,Localización precisa,CONABIP,Comunitaria,1924,2018
82021220,82,82021,,Bibliotecas Populares,,Santa Fe,Castellanos,Humberto I,Biblioteca Popular Mariano Moreno,Mariano Moreno (O) 183,,S2309BJC,3493,480682,bpmoreno1408@yahoo.com.ar,,,-30.8666330,-61.3502000,Localización precisa,CONABIP,Comunitaria,1929,2018
06126030,06,06126,,Bibliotecas Populares,,Buenos Aires,Campana,Campana,Biblioteca Popular Dr. Martín L. Becerra,Rivadavia 751,,2804,s/d,s/d,s/d,,,-34.1708330,-58.9601000,Localización precisa,CONABIP,Comunitaria,1917,2018
90105080,90,90105,,Bibliotecas Populares,,Tucumán,Tafi Viejo,Tafi Viejo,Biblioteca Popular Ing. A. Pasquini,Belgrano 253,,4103,381,4619066,s/d,,,-26.7331830,-65.2595670,Localización precisa,CONABIP,Comunitaria,1923,2018
82042220,82,82042,,Bibliotecas Populares,,Santa Fe,General Lopez,Rufino,Biblioteca Popular José Ingenieros,Santa Fé 159,,6100,3382,426390,bibliotecaji@coop54.com.ar,,,-34.2630830,-62.7137830,Localización precisa,CONABIP,Comunitaria,1913,2018
14140300,14,14140,,Bibliotecas Populares,,Córdoba,San Justo,Morteros,Biblioteca Popular Cultura y progreso,Mariano Moreno 16,,X2421AEO,3562,424052,ctcmorteros@coopmorteros.com.ar,,,-30.7137000,-62.0026000,Localización precisa,CONABIP,Comunitaria,1923,2018
06371010,06,06371,,Bibliotecas Populares,,Buenos Aires,General San Martin,Villa Ballester,Biblioteca Popular Bernardino Rivadavia,Calle 122 Nº 3155,,1603,11,47678597,bibliotecarivadavia@yahoo.es,,,-34.5511330,-58.5613170,Localización precisa,CONABIP,Comunitaria,1925,2018
86077010,86,86077,,Bibliotecas Populares,,Santiago del Estero,General Taboada,Añatuya,Biblioteca Popular de Añatuya,Sarmiento 150,,3760,3844,421563,bibsarmientoanatuya@hotmail.com,,,-28.4613830,-62.8368500,Localización precisa,CONABIP,Comunitaria,1922,2018
94014020,94,94014,,Bibliotecas Populares,,Tierra del Fuego,Ushuaia,Ushuaia,Biblioteca Popular Domingo Faustino Sarmiento,San Martín 1589,,9410,2901,423103,bpsarmientoush@gmail.com,,,-54.2395510,-67.2473140,Localización precisa,CONABIP,Comunitaria,1926,2018
10084080,10,10084,,Bibliotecas Populares,,Catamarca,Poman,Rincón,Biblioteca Popular Manuel Belgrano,Sin dirección,,5321,3835,474031,s/d,,,-28.2216330,-66.1438670,Localización precisa,CONABIP,Comunitaria,1926,2018
02000010,02,02000,,Bibliotecas Populares,,Ciudad Autónoma de Buenos Aires,Ciudad Autonoma de Buenos Aires,Ciudad de Buenos Aires,Biblioteca Popular Pueyrredón sud,Bolivia 4801,,C1419DUA,11,45715625,bibliopueysud@yahoo.com.ar,,,-34.5832900,-58.4995730,Localización precisa,CONABIP,Comunitaria,1920,2018
82021360,82,82021,,Bibliotecas Populares,,Santa Fe,Castellanos,Sunchales,Biblioteca Popular Juan Bautista Alberdi,Cristóbal Colón 1284,,2322,3493,420729,bibjbalberdi@yahoo.com.ar,,,-30.9423330,-61.5531330,Localización precisa,CONABIP,Comunitaria,1998,2018
06840010,06,06840,,Bibliotecas Populares,,Buenos Aires,Tres de Febrero,Saenz Peña,Instituto y Biblioteca Popular Almafuerte,San Pedro 1174,,1674,11,47124126,biblioalmafuerte@hotmail.com,,,-34.6046070,-58.5290640,Localización precisa,CONABIP,Comunitaria,1926,2018
06483040,06,06483,,Bibliotecas Populares,,Buenos Aires,Lobos,Lobos,Biblioteca Popular Albino Capponi,Rivadavia 36,,7240,2227,431139,bibliocapponi@yahoo.com.ar,,,-35.1855000,-59.0962170,Localización precisa,CONABIP,Comunitaria,1902,2018
06791050,06,06791,,Bibliotecas Populares,,Buenos Aires,Tandil,Tandil,Biblioteca Popular Juan Antonio Salceda,Av.Colón 1479,,7000,2293,424332,bibliotecajasalceda@yahoo.com.ar,,,-37.3144000,-59.1364000,Localización precisa,CONABIP,Comunitaria,1919,2018
38056030,38,38056,,Bibliotecas Populares,,Jujuy,San Antonio,San Antonio,Biblioteca Popular Coronel Hilarion de la Quintana,Sarmiento,,Y4605BAA,388,4998029,s/d,,,-24.3670330,-65.3367670,Localización precisa,CONABIP,Comunitaria,1926,2018
30056090,30,30056,,Bibliotecas Populares,,Entre Ríos,Gualeguaychu,Larroque,Biblioteca Popular Juan Bautista Alberdi,25 de Mayo 266,,2854,3446,460042,biblioteca.alberdi@yahoo.com.ar,,,-33.0325170,-58.9985500,Localización precisa,CONABIP,Comunitaria,1927,2018
86049110,86,86049,,Bibliotecas Populares,,Santiago del Estero,Capital,Santiago del Estero,Biblioteca Popular Agustín Alvarez,Independencia 652,,4200,385,4222943,bpaalvarez@hotmail.com,,,-27.7930670,-64.2538330,Localización precisa,CONABIP,Comunitaria,1926,2018
82014050,82,82014,,Bibliotecas Populares,,Santa Fe,Caseros,Casilda,Biblioteca Popular Escolar Manuel Dorrego,Las Heras 2789,,2170,3464,427751,bibdorrego@dat1.net.ar,,,-33.0447830,-61.1757330,Localización precisa,CONABIP,Comunitaria,1930,2018
82042290,82,82042,,Bibliotecas Populares,,Santa Fe,General Lopez,Venado Tuerto,Biblioteca Popular Almafuerte,Av.Estrugsamou 250,,2600,s/d,s/d,s/d,,,-33.7424330,-61.9711000,Localización precisa,CONABIP,Comunitaria,1930,2018
06770060,06,06770,,Bibliotecas Populares,,Buenos Aires,San Pedro,Santa Lucía,Biblioteca Popular Domingo Faustino Sarmiento,Sarmiento 405,,2935,s/d,s/d,bibliotecadfsarmiento@gmail.com,,,-33.8810000,-59.8750170,Localización precisa,CONABIP,Comunitaria,1927,2018
06469100,06,06469,,Bibliotecas Populares,,Buenos Aires,Lincoln,Roberts,Biblioteca Popular José Ingenieros,Rivadavia (Ex Estación de Ferrocarril) 1490,,B6122AFP,2355,498315,bibliotecaroberts@cooproberts.com.ar,,,-35.1405170,-61.9719500,Localización precisa,CONABIP,Comunitaria,1926,2018
06371010,06,06371,,Bibliotecas Populares,,Buenos Aires,General San Martin,San Andrés,Biblioteca Popular Juan Bautista Alberdi,Ríobamba 2675,,1651,11,47559198,bpalberdi@gmail.com,,,-34.5681900,-58.5400920,Localización precisa,CONABIP,Comunitaria,1927,2018
06602030,06,06602,,Bibliotecas Populares,,Buenos Aires,Patagones,Carmen de Patagones,Biblioteca Popular Cervantes,DR. Baraja 177,,8504,2920,464634,bibpopcervantes@yahoo.com.ar,,,-40.8019170,-62.9849670,Localización precisa,CONABIP,Comunitaria,1927,2018
06406010,06,06406,,Bibliotecas Populares,,Buenos Aires,Hipolito Yrigoyen,Henderson,Biblioteca Popular Almafuerte,Diag.Yrigoyen 192,,6465,314,452054,mer@hcnet.com.ar,,,-36.3013670,-61.7198500,Localización precisa,CONABIP,Comunitaria,1922,2018
30008080,30,30008,,Bibliotecas Populares,,Entre Ríos,Colon,Pueblo Liebig,Biblioteca Popular Fábrica Colón,Sin dirección,,3281,3447,492044,fabricacolon@ciudad.com.ar,,,-32.1510620,-58.1905780,Localización precisa,CONABIP,Comunitaria,1905,2018
50056080,50,50056,,Bibliotecas Populares,,Mendoza,Lavalle,Costa de Araujo,Biblioteca Popular Tomás Godoy Cruz,Dr. Moreno S/N,,5535,2623,494023,lavalle_biblioteca_tsc@ya.com.ar,,,-32.7607000,-68.3945170,Localización precisa,CONABIP,Comunitaria,1926,2018
06497060,06,06497,,Bibliotecas Populares,,Buenos Aires,Lujan,Open Door,Biblioteca Popular Juan Bautista Alberdi,Buenos Aires 1016,,6708,2323,496400,bibliotecaopendoor@hotmail.com,,,-34.4888170,-59.0765170,Localización precisa,CONABIP,Comunitaria,1926,2018
82084270,82,82084,,Bibliotecas Populares,,Santa Fe,Rosario,Rosario,Biblioteca Popular Proa,Constitución 429,,2000,s/d,41384476,s/d,,,-32.9357170,-60.6727670,Localización precisa,CONABIP,Comunitaria,1927,2018
38094050,38,38094,,Bibliotecas Populares,,Jujuy,Tilcara,Tilcara,Biblioteca Popular Bartolomé Mitre,Rivadavia 378,,4624,388,4955332,bibliotil@cootepal.com.ar,,,-23.5777330,-65.3932670,Localización precisa,CONABIP,Comunitaria,1910,2018
82084030,82,82084,,Bibliotecas Populares,,Santa Fe,Rosario,Alvarez,Biblioteca Popular Infantil 25 de Mayo,Nicolás N.Alvarez 781,,2107,3402,461863,biblioteca25demayo@gmail.com,,,-33.1285500,-60.8048170,Localización precisa,CONABIP,Comunitaria,1930,2018
06134030,06,06134,,Bibliotecas Populares,,Buenos Aires,Canuelas,Cañuelas,Biblioteca Popular Domingo Faustino Sarmiento,Lara 904,,1814,2226,421728,bibliotecadfsarmiento@live.com.ar,,,-35.0537170,-58.7628830,Localización precisa,CONABIP,Comunitaria,1927,2018
14175110,14,14175,,Bibliotecas Populares,,Córdoba,Tulumba,Villa Tulumba,Biblioteca Popular Javier Lescano Colodero,Camino Público Empalme con Simbolar,,5203,3521,639205,bibliocolodrero@hotmail.com,,,-30.3965000,-64.1219330,Localización precisa,CONABIP,Comunitaria,1926,2018
06056010,06,06056,,Bibliotecas Populares,,Buenos Aires,Bahia Blanca,Villa Harding Green,Biblioteca Popular Ing. Domingo Pronsato,Salinas Chicas 4179,,8101,291,4861652,bibliotecapronsato@yahoo.com.ar,,,-38.7142110,-62.1891060,Localización precisa,CONABIP,Comunitaria,1989,2018
06007080,06,06007,,Bibliotecas Populares,,Buenos Aires,Adolfo Alsina,Rivera,Biblioteca Popular José Ingenieros,Los Colonizadores 235,,6441,2935,432073,ccibiblio@rivycol.com.ar,,,-37.1626000,-63.2470500,Localización precisa,CONABIP,Comunitaria,1925,2018
06091010,06,06091,,Bibliotecas Populares,,Buenos Aires,Berazategui,Berazategui,Biblioteca Popular Manuel Belgrano,L. de La Torre 1736,,1884,11,42166914,bpmbelgrano@hotmail.com,,,-34.7647500,-58.2066830,Localización precisa,CONABIP,Comunitaria,1924,2018
06833060,06,06833,,Bibliotecas Populares,,Buenos Aires,Tres Arroyos,Orense,Biblioteca Popular Pública Amigos del libro,J.P.de Riglos 20,,B7503AZA,2982,420101,bpamigos@cyh.com.ar,,,-38.6874170,-59.7823330,Localización precisa,CONABIP,Comunitaria,1927,2018
14182140,14,14182,,Bibliotecas Populares,,Córdoba,Union,Justiniano Posse,Biblioteca Popular Bernardino Rivadavia,9 de Julio 778,,X2553ADP,3534,472466,s/d,,,-32.8830670,-62.6785500,Localización precisa,CONABIP,Comunitaria,1928,2018
62021060,62,62021,,Bibliotecas Populares,,Río Negro,Bariloche,San Carlos de Bariloche,Asociación Biblioteca Sarmiento,Centro Civico s/n,,8400,2944,422674,bibsar@bariloche.com.ar,,,-41.1333330,-71.3107000,Localización precisa,CONABIP,Comunitaria,1928,2018
82084270,82,82084,,Bibliotecas Populares,,Santa Fe,Rosario,Rosario,Biblioteca Popular Juan Arzeno,Av.O.Lagos 1064,,2000,341,4724475,s/d,,,-32.9456170,-60.6622500,Localización precisa,CONABIP,Comunitaria,1919,2018
06581040,06,06581,,Bibliotecas Populares,,Buenos Aires,Necochea,Necochea,Biblioteca Popular José M. Estrada,Calle 57 Nº 2646,,7630,2262,422113,joseestrada@arnet.com.ar.,,,-38.5532830,-58.7387830,Localización precisa,CONABIP,Comunitaria,1926,2018
18112040,18,18112,,Bibliotecas Populares,,Corrientes,Monte Caseros,Mocoreta,Biblioteca Popular Mariano Moreno,San Martín esquina Buenos Aires,,3226,3775,498256,s/d,,,-30.6203330,-57.9652670,Localización precisa,CONABIP,Comunitaria,1928,2018
06189030,06,06189,,Bibliotecas Populares,,Buenos Aires,Coronel Dorrego,Coronel Dorrego,Biblioteca Popular Coronel Dorrego,Av.Ricardo Fuertes 674,,8150,2921,452726,administracion@bpcd.org.ar,,,-38.7196330,-61.2887330,Localización precisa,CONABIP,Comunitaria,1928,2018
82042050,82,82042,,Bibliotecas Populares,,Santa Fe,General Lopez,Carmen,Biblioteca Popular Domingo Faustino Sarmiento,Belgrano 558,,2618,3462,493275,bibdomingo@arnet.com.ar,,,-33.7300830,-61.7601830,Localización precisa,CONABIP,Comunitaria,1928,2018
06455030,06,06455,,Bibliotecas Populares,,Buenos Aires,Las Flores,Las Flores,Biblioteca Popular 25 de Mayo,Rivadavia 325,,7200,2244,450141,info@bp25demayo.org.ar,,,-36.0127830,-59.0991000,Localización precisa,CONABIP,Comunitaria,1928,2018
58035070,58,58035,,Bibliotecas Populares,,Neuquén,Confluencia,Neuquén,Biblioteca Popular Juan Bautista Alberdi,Alberdi 12,,8300,299,4430273,bibliotecalberdi@yahoo.com.ar,,,-38.9528670,-68.0588500,Localización precisa,CONABIP,Comunitaria,1928,2018
02000010,02,02000,,Bibliotecas Populares,,Ciudad Autónoma de Buenos Aires,Ciudad Autonoma de Buenos Aires,Ciudad de Buenos Aires,Biblioteca Popular Dr. Tristán J. González,P.Goyena 1579,,1406,11,44323118,tjgonzalez@cotelnet.com.ar,,,-34.6280750,-58.4500010,Localización precisa,CONABIP,Comunitaria,1928,2018
46014010,46,46014,,Bibliotecas Populares,,La Rioja,Capital,La Rioja,Biblioteca Infantil Popular Tte.Coronel Marcelino Reyes,Dalmacio Velez Sarsfield 759,,F5300AEQ,3822,429845,bmarcelinoreyes@gmail.com.,,,-29.4160500,-66.8583670,Localización precisa,CONABIP,Comunitaria,1930,2018
06189070,06,06189,,Bibliotecas Populares,,Buenos Aires,Coronel Dorrego,Oriente,Biblioteca Popular Florentino Ameghino,Sarmiento 568,,B7509AUL,2983,495361,biblioameghino@altisa.com.ar,,,-38.7428670,-60.6126670,Localización precisa,CONABIP,Comunitaria,1928,2018
06441030,06,06441,,Bibliotecas Populares,,Buenos Aires,La Plata,Manuel B.Gonnet,Biblioteca Popular Dr. Roman S. Harosteguy,Calle 502 2068,,1897,221,48486969,biblioharosteguy@yahoo.com.ar,,,-34.8834330,-58.0117670,Localización precisa,CONABIP,Comunitaria,1930,2018
02000010,02,02000,,Bibliotecas Populares,,Ciudad Autónoma de Buenos Aires,Ciudad Autonoma de Buenos Aires,Ciudad de Buenos Aires,Biblioteca Popular El resplandor,Llerena 2727,,C1427DEG,11,45218146,s/d,,,-34.5865100,-58.4762610,Localización precisa,CONABIP,Comunitaria,1928,2018
86161010,86,86161,,Bibliotecas Populares,,Santiago del Estero,Robles,Estación Beltran,Biblioteca Popular San Martín,España  59,,4308,385,4903992,josemariano@teletel.com.ar,,,-27.8286040,-64.0613560,Localización precisa,CONABIP,Comunitaria,1928,2018
06351040,06,06351,,Bibliotecas Populares,,Buenos Aires,General Pinto,Coronel Granada,Biblioteca Popular Escolar Antártida Argentina,San Martín y Lariguet,,6062,2356,495209,bibliogranada@yahoo.com.ar,,,-34.7897380,-62.2003020,Localización precisa,CONABIP,Comunitaria,1996,2018
66028050,66,66028,,Bibliotecas Populares,,Salta,Capital,Bº Limache - Capital,Biblioteca Popular Carlos Hugo Aparicio,Etapa II (Once - Manzana 1- Casa 20,,4400,387,4249380,bibaparicio@hotmail.com,,,-24.8010070,-65.4196380,Localización precisa,CONABIP,Comunitaria,1999,2018
18042020,18,18042,,Bibliotecas Populares,,Corrientes,Empedrado,Empedrado,Biblioteca Popular Escolar Popular,Alvear 343,,3418,783,91083,s/d,,,-27.9525830,-58.8066170,Localización precisa,CONABIP,Comunitaria,1911,2018
02000010,02,02000,,Bibliotecas Populares,,Ciudad Autónoma de Buenos Aires,Ciudad Autonoma de Buenos Aires,Ciudad de Buenos Aires,Biblioteca Popular Juan María Becciu,Pje.Nicolás Granada 1660,,1416,11,45812030,bibliotecabecciu@yahoo.com.ar,,,-34.6028710,-58.4621160,Localización precisa,CONABIP,Comunitaria,1915,2018
10091060,10,10091,,Bibliotecas Populares,,Catamarca,Santa Maria,El Puesto,Biblioteca Popular Florentino Ameghino,Sin dirección,,5341,3837,471024,s/d,,,-27.9556830,-67.6337170,Localización precisa,CONABIP,Comunitaria,1928,2018
06210020,06,06210,,Bibliotecas Populares,,Buenos Aires,Chacabuco,Chacabuco,Biblioteca Popular Domingo Faustino Sarmiento,San Martín 38,,6470,352,27094,biblioteca@cech.com.ar,,,-34.6421500,-60.4703670,Localización precisa,CONABIP,Comunitaria,1907,2018
06518010,06,06518,,Bibliotecas Populares,,Buenos Aires,Mar Chiquita,Coronel Vidal,Biblioteca Popular Libro y escuela,General Paz 491,,7174,2265,432277,s/d,,,-37.4458670,-57.7286830,Localización precisa,CONABIP,Comunitaria,1928,2018
06833100,06,06833,,Bibliotecas Populares,,Buenos Aires,Tres Arroyos,Tres Arroyos,Biblioteca Popular José Ingenieros,Bolivar 132,,7500,2983,431791,biblo060@gmail.com,,,-38.3789000,-60.2807670,Localización precisa,CONABIP,Comunitaria,1930,2018
06560010,06,06560,,Bibliotecas Populares,,Buenos Aires,Moreno,Castelar,Biblioteca Popular 9 de Julio,Martín Irigoyen 520,,1712,11,4895043,biblioteca9dejulio@speedy.com.ar,,,-34.6532170,-58.6410500,Localización precisa,CONABIP,Comunitaria,1929,2018
82126140,82,82126,,Bibliotecas Populares,,Santa Fe,San Martin,San Jorge,Biblioteca Popular Rivadavia,Av.San Martín 1023,,S2452AXJ,3406,443017,bprivadavia@arnet.com.ar,,,-31.8978000,-61.8601670,Localización precisa,CONABIP,Comunitaria,1929,2018
82028120,82,82028,,Bibliotecas Populares,,Santa Fe,Constitucion,Juncal,Biblioteca Popular Esteban Echeverría,Ledesma y Avellaneda,,2723,2473,492283,echeverria_juncal@hotmail.com,,,-33.7146830,-61.0510330,Localización precisa,CONABIP,Comunitaria,1929,2018
14049050,14,14049,,Bibliotecas Populares,,Córdoba,Ischilin,Dean Funes,Biblioteca Popular Mariano Moreno,Italia 163,,5200,3521,422259,bibliotecamm@hotmail.com,,,-30.4308500,-64.3493170,Localización precisa,CONABIP,Comunitaria,1929,2018
82021350,82,82021,,Bibliotecas Populares,,Santa Fe,Castellanos,Santa Clara de Saquier,Biblioteca Popular Mariano Moreno,José Hernández 280,,S2405AZF,3492,490007,biblioteca1654@hotmail.com,,,-31.3368830,-61.8201000,Localización precisa,CONABIP,Comunitaria,1931,2018
06413050,06,06413,,Bibliotecas Populares,,Buenos Aires,Junin,Junín,Biblioteca Popular Pedro Aguilera,Paso esq. Siria 908,,6000,2362,424667,bca_pedroaguilera@hotmail.com,,,-34.5732000,-60.9433330,Localización precisa,CONABIP,Comunitaria,1928,2018
14182150,14,14182,,Bibliotecas Populares,,Córdoba,Union,Laborde,Club y Biblioteca Popular Recreativo,Belgrano 330,,X2657ACH,3534,460002,clubrecreativolaborde@linkar.com.ar,,,-33.1531830,-62.8549670,Localización precisa,CONABIP,Comunitaria,1929,2018
78014080,78,78014,,Bibliotecas Populares,,Santa Cruz,Deseado,Puerto Deseado,Biblioteca Popular Municipal Florentino Ameghino,Moreno 622,,9050,297,4870662,bibliotecampd@speedy.com.ar,,,-47.7511330,-65.8965330,Localización precisa,CONABIP,Comunitaria,1927,2018
06623100,06,06623,,Bibliotecas Populares,,Buenos Aires,Pergamino,Pergamino,Biblioteca Popular José Manuel Estrada,Estrada 1225,,2700,2477,443378,biblo045@infovia.com.ar,,,-33.8981500,-60.5803500,Localización precisa,CONABIP,Comunitaria,1929,2018
06413050,06,06413,,Bibliotecas Populares,,Buenos Aires,Junin,Junín,Biblioteca Popular Esteban Echeverría,Lebensohn 501 y Gral.Lavalle,,B6000BHK,2362,549423,biblioecheverria1454@gmail.com,,,-34.5900670,-60.9354330,Localización precisa,CONABIP,Comunitaria,1930,2018
62063020,62,62063,,Bibliotecas Populares,,Río Negro,Pichi Mahuida,Río Colorado,Biblioteca Popular Domingo Faustino Sarmiento,Moreno 628,,8138,2931,431109,bibliotecarc@speedy.com.ar,,,-38.9907830,-64.0975170,Localización precisa,CONABIP,Comunitaria,1930,2018
06441030,06,06441,,Bibliotecas Populares,,Buenos Aires,La Plata,José Hernández,Biblioteca Popular José Hernández,Calle 31 e/510 y 511,,1903,221,4840387,bibliojoseherenandez@hotmail.com,,,-34.9048500,-58.0179500,Localización precisa,CONABIP,Comunitaria,1997,2018
06070010,06,06070,,Bibliotecas Populares,,Buenos Aires,Baradero,Baradero,Biblioteca Popular Municipal Fray Luis de Bolaños,Rodriguez y Thames,,B2942DGT,3329,485232,biblo076@infovia.com.ar,,,-33.8047000,-59.5052000,Localización precisa,CONABIP,Comunitaria,1872,2018
82042260,82,82042,,Bibliotecas Populares,,Santa Fe,General Lopez,Sancti Spiritu,Biblioteca Popular Domingo Faustino Sarmiento,Lisandro de La Torre 424,,2617,3462,444667,bibliosancti@coopsancti.com.ar,,,-34.0078830,-62.2389500,Localización precisa,CONABIP,Comunitaria,1930,2018
42126010,42,42126,,Bibliotecas Populares,,La Pampa,Rancul,Caleufú,Biblioteca Popular Florentino Ameghino,España 450,,L6387AGJ,2335,450291,bibliotecacaleufu@yahoo.com.ar,,,-35.5957000,-64.5586170,Localización precisa,CONABIP,Comunitaria,1930,2018
06105060,06,06105,,Bibliotecas Populares,,Buenos Aires,Bolivar,Bolívar,Biblioteca Popular Domingo Faustino Sarmiento,Av.San Martín 1065,,6550,2314,426967,cultural_07@yahoo.com.ar,,,-36.2277830,-61.1174170,Localización precisa,CONABIP,Comunitaria,1926,2018
